[
    {
        "name": "JAN MAYEN (1001-1)",
        "operator": "MET Norway",
        "wmo-id": 1001,
        "latitude": 70.9397222222,
        "longitude": -8.6677777778,
        "elevation": "9",
        "sonde": [
            "23"
        ]
    },
    {
        "name": "NY-ALESUND II",
        "operator": "MET Norway",
        "wmo-id": 1004,
        "latitude": 78.9233333333,
        "longitude": 11.9222222222,
        "elevation": "15.5",
        "sonde": [
            "23"
        ]
    },
    {
        "name": "ANDOYA (1010-1)",
        "operator": "MET Norway",
        "wmo-id": 1010,
        "latitude": 69.3152777778,
        "longitude": 16.1308333333,
        "elevation": "10",
        "sonde": [
            "24"
        ]
    },
    {
        "name": "BJORNOYA (1028-1)",
        "operator": "MET Norway",
        "wmo-id": 1028,
        "latitude": 74.5038888889,
        "longitude": 19.0011111111,
        "elevation": "20",
        "sonde": [
            "23"
        ]
    },
    {
        "name": "ORLAND III (1241-1)",
        "operator": "MET Norway",
        "wmo-id": 1241,
        "latitude": 63.7055555556,
        "longitude": 9.6116666667,
        "elevation": "10",
        "sonde": [
            "24"
        ]
    },
    {
        "name": "EKOFISK (1400-1)",
        "operator": "MET Norway",
        "wmo-id": 1400,
        "latitude": 56.5422222222,
        "longitude": 3.2236111111,
        "elevation": "52",
        "sonde": [
            "23"
        ]
    },
    {
        "name": "STAVANGER/SOLA (1415-1)",
        "operator": "MET Norway",
        "wmo-id": 1415,
        "latitude": 58.8741666667,
        "longitude": 5.665,
        "elevation": "37",
        "sonde": [
            "24"
        ]
    },
    {
        "name": "OSLO-BLINDERN (1492-1)",
        "operator": "MET Norway",
        "wmo-id": 1492,
        "latitude": 59.9427777778,
        "longitude": 10.7194444444,
        "elevation": "95",
        "sonde": [
            "24"
        ]
    },
    {
        "name": "LULEA-KALLAX (2185-0)",
        "operator": "SMHI",
        "wmo-id": 2185,
        "latitude": 65.5433333333,
        "longitude": 22.1144444444,
        "elevation": "17",
        "sonde": [
            "42"
        ]
    },
    {
        "name": "SUNDSVALL HARNOSAND (2365-0)",
        "operator": "SMHI",
        "wmo-id": 2365,
        "latitude": 62.5316666667,
        "longitude": 17.4361111111,
        "elevation": "3.9",
        "sonde": [
            "42"
        ]
    },
    {
        "name": "GOTEBORG/LANDVETTER",
        "operator": "SMHI",
        "wmo-id": 2527,
        "latitude": 57.6572222222,
        "longitude": 12.2911111111,
        "elevation": "164",
        "sonde": [
            "42"
        ]
    },
    {
        "name": "VISBY AEROLOGISKA STATION",
        "operator": "SMHI",
        "wmo-id": 2591,
        "latitude": 57.65,
        "longitude": 18.35,
        "elevation": "45",
        "sonde": [
            "42"
        ]
    },
    {
        "name": "SODANKYLA ARCTIC RESEARCH CENTRE",
        "operator": "FMI",
        "wmo-id": 2836,
        "latitude": 67.3666666667,
        "longitude": 26.6288888889,
        "elevation": "179",
        "sonde": [
            "42"
        ]
    },
    {
        "name": "JOKIOINEN OBSERVATORY",
        "operator": "FMI",
        "wmo-id": 2963,
        "latitude": 60.8138888889,
        "longitude": 23.4975,
        "elevation": "104",
        "sonde": [
            "42"
        ]
    },
    {
        "name": "LERWICK",
        "operator": "UKMO",
        "wmo-id": 3005,
        "latitude": 60.1391666667,
        "longitude": -1.1847222222,
        "elevation": "82",
        "sonde": [
            "41"
        ]
    },
    {
        "name": "ALBEMARLE",
        "operator": "UKMO",
        "wmo-id": 3238,
        "latitude": 55.0197222222,
        "longitude": -1.8816666667,
        "elevation": "142",
        "sonde": [
            "42"
        ]
    },
    {
        "name": "NOTTINGHAM, WATNALL",
        "operator": "UKMO",
        "wmo-id": 3354,
        "latitude": 53.0055555556,
        "longitude": -1.2511111111,
        "elevation": "117",
        "sonde": [
            "42"
        ]
    },
    {
        "name": "ABERPORTH",
        "operator": "UKMO",
        "wmo-id": 3502,
        "latitude": 52.1394444444,
        "longitude": -4.5711111111,
        "elevation": "133",
        "sonde": [
            "41"
        ]
    },
    {
        "name": "LARKHILL",
        "operator": "UKMO",
        "wmo-id": 3743,
        "latitude": 51.2016666667,
        "longitude": -1.8058333333,
        "elevation": "132",
        "sonde": [
            "41"
        ]
    },
    {
        "name": "CAMBORNE",
        "operator": "UKMO",
        "wmo-id": 3808,
        "latitude": 50.21841,
        "longitude": -5.32753,
        "elevation": "87",
        "sonde": [
            "41"
        ]
    },
    {
        "name": "HERSTMONCEUX, WEST END",
        "operator": "UKMO",
        "wmo-id": 3882,
        "latitude": 50.8994444444,
        "longitude": 0.3169444444,
        "elevation": "52",
        "sonde": [
            "42"
        ]
    },
    {
        "name": "CASTOR BAY",
        "operator": "UKMO",
        "wmo-id": 3918,
        "latitude": 54.5,
        "longitude": -6.3333333333,
        "elevation": "",
        "sonde": [
            "42"
        ]
    },
    {
        "name": "VALENTIA OBSERVATORY (3953-1)",
        "operator": "ME",
        "wmo-id": 3953,
        "latitude": 51.9380555556,
        "longitude": -10.2433333333,
        "elevation": "23.9",
        "sonde": [
            "77"
        ]
    },
    {
        "name": "KEFLAVIKURFLUGVOLLUR",
        "operator": "IMO",
        "wmo-id": 4018,
        "latitude": 63.9805555556,
        "longitude": -22.595,
        "elevation": "52",
        "sonde": [
            "42"
        ]
    },
    {
        "name": "AASIAAT (EGEDESMINDE)",
        "operator": "DMI",
        "wmo-id": 4220,
        "latitude": 68.7080555556,
        "longitude": -52.8516666667,
        "elevation": "43",
        "sonde": [
            "41"
        ]
    },
    {
        "name": "MITTARFIK NARSARSUAQ (4270-1)",
        "operator": "DMI",
        "wmo-id": 4270,
        "latitude": 61.1666666667,
        "longitude": -45.4166666667,
        "elevation": "",
        "sonde": [
            "41"
        ]
    },
    {
        "name": "DANMARKSHAVN",
        "operator": "DMI",
        "wmo-id": 4320,
        "latitude": 76.7694444444,
        "longitude": -18.6680555556,
        "elevation": "11",
        "sonde": [
            "41"
        ]
    },
    {
        "name": "ITTOQQORTOORMIIT (SCORESBYSUND)",
        "operator": "DMI",
        "wmo-id": 4339,
        "latitude": 70.4844444444,
        "longitude": -21.9511111111,
        "elevation": "70",
        "sonde": [
            "41"
        ]
    },
    {
        "name": "TASIILAQ (AMMASSALIK)",
        "operator": "DMI",
        "wmo-id": 4360,
        "latitude": 65.6111111111,
        "longitude": -37.6366666667,
        "elevation": "54",
        "sonde": [
            "77"
        ]
    },
    {
        "name": "GEOSUMMIT",
        "operator": "DMI",
        "wmo-id": 4417,
        "latitude": 72.5802777778,
        "longitude": -38.4586111111,
        "elevation": "3216.5",
        "sonde": [
            "23"
        ]
    },
    {
        "name": "TORSHAVN",
        "operator": "DMI",
        "wmo-id": 6011,
        "latitude": 62.0230555556,
        "longitude": -6.7647222222,
        "elevation": "54",
        "sonde": [
            "07"
        ]
    },
    {
        "name": "FLYVESTATION KARUP",
        "operator": "DMI",
        "wmo-id": 6060,
        "latitude": 56.2933333333,
        "longitude": 9.1138888889,
        "elevation": "52.12",
        "sonde": [
            "17"
        ]
    },
    {
        "name": "DE BILT AWS",
        "operator": "KNMI",
        "wmo-id": 6260,
        "latitude": 52.0988888889,
        "longitude": 5.1797222222,
        "elevation": "1.9",
        "sonde": [
            "23"
        ]
    },
    {
        "name": "BEAUVECHAIN",
        "operator": "RMIB",
        "wmo-id": 6447,
        "latitude": 50.7455555556,
        "longitude": 4.7633333333,
        "elevation": "112.8",
        "sonde": [
            "41"
        ]
    },
    {
        "name": "BEAUVECHAIN",
        "operator": "RMIB",
        "wmo-id": 6458,
        "latitude": 50.7455555556,
        "longitude": 4.7633333333,
        "elevation": "112.8",
        "sonde": [
            "17",
            "07"
        ]
    },
    {
        "name": "RUENENBERG MIL",
        "operator": "MeteoSwiss",
        "wmo-id": 6610,
        "latitude": 47.4344444444,
        "longitude": 7.8794444444,
        "elevation": "611.17",
        "sonde": [
            "42",
            "41"
        ]
    },
    {
        "name": "BEAUVECHAIN",
        "operator": "RMIB",
        "wmo-id": 7074,
        "latitude": 50.7455555556,
        "longitude": 4.7633333333,
        "elevation": "112.8",
        "sonde": [
            "41"
        ]
    },
    {
        "name": "BREST-GUIPAVAS",
        "operator": "MF",
        "wmo-id": 7110,
        "latitude": 48.45,
        "longitude": -4.3833,
        "elevation": "94",
        "sonde": [
            "77"
        ]
    },
    {
        "name": "TRAPPES",
        "operator": "MF",
        "wmo-id": 7145,
        "latitude": 48.7744444444,
        "longitude": 2.0097222222,
        "elevation": "167",
        "sonde": [
            "77"
        ]
    },
    {
        "name": "TRAPPES",
        "operator": "MF",
        "wmo-id": 7255,
        "latitude": 48.7744444444,
        "longitude": 2.0097222222,
        "elevation": "167",
        "sonde": [
            "17"
        ]
    },
    {
        "name": "BORDEAUX MERIGNAC",
        "operator": "MF",
        "wmo-id": 7510,
        "latitude": 44.8305555556,
        "longitude": -0.6913888889,
        "elevation": "51",
        "sonde": [
            "77"
        ]
    },
    {
        "name": "NIMES-COURBESSAC",
        "operator": "MF",
        "wmo-id": 7645,
        "latitude": 43.8569444444,
        "longitude": 4.4063888889,
        "elevation": "60",
        "sonde": [
            "77"
        ]
    },
    {
        "name": "AJACCIO",
        "operator": "MF",
        "wmo-id": 7761,
        "latitude": 41.9180555556,
        "longitude": 8.7927777778,
        "elevation": "6",
        "sonde": [
            "77"
        ]
    },
    {
        "name": "LA CORUNA",
        "operator": "AEMET",
        "wmo-id": 8001,
        "latitude": 43.3658333333,
        "longitude": -8.4213888889,
        "elevation": "58",
        "sonde": [
            "23"
        ]
    },
    {
        "name": "SANTANDER",
        "operator": "AEMET",
        "wmo-id": 8023,
        "latitude": 43.4911111111,
        "longitude": -3.8005555556,
        "elevation": "52",
        "sonde": [
            "23"
        ]
    },
    {
        "name": "BARCELONA SERVEI",
        "operator": "AEMET",
        "wmo-id": 8190,
        "latitude": 41.3844444444,
        "longitude": 2.1180555556,
        "elevation": "95",
        "sonde": [
            "77"
        ]
    },
    {
        "name": "MADRID/BARAJAS RS",
        "operator": "AEMET",
        "wmo-id": 8221,
        "latitude": 40.4652777778,
        "longitude": -3.5797222222,
        "elevation": "631",
        "sonde": [
            "23"
        ]
    },
    {
        "name": "MALLORCA-SON BONET",
        "operator": "AEMET",
        "wmo-id": 8302,
        "latitude": 39.6058333333,
        "longitude": 2.7066666667,
        "elevation": "41",
        "sonde": [
            "23"
        ]
    },
    {
        "name": "GIBRALTAR (8495-1)",
        "operator": "UKMO",
        "wmo-id": 8383,
        "latitude": 36.15,
        "longitude": -5.35,
        "elevation": "3",
        "sonde": [
            "23"
        ]
    },
    {
        "name": "MURCIA",
        "operator": "AEMET",
        "wmo-id": 8430,
        "latitude": 38.0019444444,
        "longitude": -1.1708333333,
        "elevation": "61",
        "sonde": [
            "77"
        ]
    },
    {
        "name": "LAJES (ACORES) (8508-0)",
        "operator": "PIM",
        "wmo-id": 8508,
        "latitude": 38.76783,
        "longitude": -27.08716,
        "elevation": "72",
        "sonde": [
            "23"
        ]
    },
    {
        "name": "FUNCHAL",
        "operator": "PIM",
        "wmo-id": 8522,
        "latitude": 32.64753,
        "longitude": -16.89248,
        "elevation": "58",
        "sonde": [
            "79"
        ]
    },
    {
        "name": "LISBOA/GAGO COUTINHO",
        "operator": "PIM",
        "wmo-id": 8579,
        "latitude": 38.7662,
        "longitude": -9.12749,
        "elevation": "104",
        "sonde": [
            "23"
        ]
    },
    {
        "name": "SCHLESWIG (10035-1)",
        "operator": "DWD",
        "wmo-id": 10035,
        "latitude": 54.527539,
        "longitude": 9.548666,
        "elevation": "47",
        "sonde": [
            "23"
        ]
    },
    {
        "name": "NORDERNEY",
        "operator": "DWD",
        "wmo-id": 10113,
        "latitude": 53.712304,
        "longitude": 7.151923,
        "elevation": "11.47",
        "sonde": [
            "24"
        ]
    },
    {
        "name": "GREIFSWALD",
        "operator": "DWD",
        "wmo-id": 10184,
        "latitude": 54.096736,
        "longitude": 13.405576,
        "elevation": "2",
        "sonde": [
            "23"
        ]
    },
    {
        "name": "BERGEN",
        "operator": "DWD",
        "wmo-id": 10238,
        "latitude": 52.815233,
        "longitude": 9.924809,
        "elevation": "70",
        "sonde": [
            "23"
        ]
    },
    {
        "name": "MEPPEN",
        "operator": "DWD",
        "wmo-id": 10304,
        "latitude": 52.715579,
        "longitude": 7.317629,
        "elevation": "19",
        "sonde": [
            "23"
        ]
    },
    {
        "name": "LINDENBERG (10393-1)",
        "operator": "DWD",
        "wmo-id": 10393,
        "latitude": 52.20925,
        "longitude": 14.1206,
        "elevation": "112",
        "sonde": [
            "23"
        ]
    },
    {
        "name": "ESSEN-BREDENEY (10410-1)",
        "operator": "DWD",
        "wmo-id": 10410,
        "latitude": 51.4055555556,
        "longitude": 6.9686111111,
        "elevation": "153",
        "sonde": [
            "24"
        ]
    },
    {
        "name": "MEININGEN (10548-1)",
        "operator": "DWD",
        "wmo-id": 10548,
        "latitude": 50.561752,
        "longitude": 10.377062,
        "elevation": "450",
        "sonde": [
            "24"
        ]
    },
    {
        "name": "IDAR-OBERSTEIN",
        "operator": "DWD",
        "wmo-id": 10618,
        "latitude": 49.692727,
        "longitude": 7.326355,
        "elevation": "376",
        "sonde": [
            "23"
        ]
    },
    {
        "name": "STUTTGART/SCHNARRENBERG (10739-1)",
        "operator": "DWD",
        "wmo-id": 10739,
        "latitude": 48.8333333333,
        "longitude": 9.2,
        "elevation": "314",
        "sonde": [
            "24"
        ]
    },
    {
        "name": "KUEMMERSBRUCK (10771-0)",
        "operator": "DWD",
        "wmo-id": 10771,
        "latitude": 49.4283333333,
        "longitude": 11.9016666667,
        "elevation": "417",
        "sonde": [
            "23"
        ]
    },
    {
        "name": "MUENCHEN-OBERSCHLEISSHEIM",
        "operator": "DWD",
        "wmo-id": 10868,
        "latitude": 48.244636,
        "longitude": 11.552548,
        "elevation": "484",
        "sonde": [
            "24"
        ]
    },
    {
        "name": "ALTENSTADT",
        "operator": "DWD",
        "wmo-id": 10954,
        "latitude": 47.834167,
        "longitude": 10.866723,
        "elevation": "756",
        "sonde": [
            "23"
        ]
    },
    {
        "name": "HOHENPEISSENBERG",
        "operator": "DWD",
        "wmo-id": 10962,
        "latitude": 47.800864,
        "longitude": 11.010754,
        "elevation": "977",
        "sonde": [
            "14"
        ]
    },
    {
        "name": "LINZ/HOERSCHING-FLUGHAFEN",
        "operator": "ZAMG",
        "wmo-id": 11010,
        "latitude": 48.2352777778,
        "longitude": 14.1880555556,
        "elevation": "298",
        "sonde": [
            "81",
            "42"
        ]
    },
    {
        "name": "WIEN/HOHE WARTE (11035-1)",
        "operator": "ZAMG",
        "wmo-id": 11035,
        "latitude": 48.2486111111,
        "longitude": 16.3563888889,
        "elevation": "198",
        "sonde": [
            "41",
            "77"
        ]
    },
    {
        "name": "INNSBRUCK-FLUGHAFEN",
        "operator": "ZAMG",
        "wmo-id": 11120,
        "latitude": 47.2602777778,
        "longitude": 11.3438888889,
        "elevation": "581",
        "sonde": [
            "42"
        ]
    },
    {
        "name": "GRAZ-THALERHOF-FLUGHAFEN",
        "operator": "ZAMG",
        "wmo-id": 11240,
        "latitude": 46.9805555556,
        "longitude": 15.44,
        "elevation": "340",
        "sonde": [
            "42"
        ]
    },
    {
        "name": "PRAHA-LIBUS",
        "operator": "CHMI",
        "wmo-id": 11520,
        "latitude": 50.0077777778,
        "longitude": 14.4469444444,
        "elevation": "302.04",
        "sonde": [
            "41"
        ]
    },
    {
        "name": "PROSTEJOV",
        "operator": "CHMI",
        "wmo-id": 11747,
        "latitude": 49.4525,
        "longitude": 17.1347222222,
        "elevation": "214.75",
        "sonde": [
            "80"
        ]
    },
    {
        "name": "POPRAD-GANOVCE",
        "operator": "SHMI",
        "wmo-id": 11952,
        "latitude": 49.0333333333,
        "longitude": 20.3166666667,
        "elevation": "",
        "sonde": [
            "23"
        ]
    },
    {
        "name": "LEBA",
        "operator": "PIMWM",
        "wmo-id": 12120,
        "latitude": 54.7536111111,
        "longitude": 17.5347222222,
        "elevation": "1.81",
        "sonde": [
            "41"
        ]
    },
    {
        "name": "LEGIONOWO",
        "operator": "PIMWM",
        "wmo-id": 12374,
        "latitude": 52.4077777778,
        "longitude": 20.9563888889,
        "elevation": "94.19",
        "sonde": [
            "41"
        ]
    },
    {
        "name": "WROCLAW-STARACHOWICE",
        "operator": "PIMWM",
        "wmo-id": 12425,
        "latitude": 51.1130555556,
        "longitude": 16.8811111111,
        "elevation": "119.55",
        "sonde": [
            "41"
        ]
    },
    {
        "name": "BUDAPEST/PESTSZENTLORINC",
        "operator": "HMS",
        "wmo-id": 12843,
        "latitude": 47.4333333333,
        "longitude": 19.1833333333,
        "elevation": "138",
        "sonde": [
            "23"
        ]
    },
    {
        "name": "SZEGED",
        "operator": "HMS",
        "wmo-id": 12982,
        "latitude": 46.25,
        "longitude": 20.1,
        "elevation": "82",
        "sonde": [
            "17"
        ]
    },
    {
        "name": "BEOGRAD/KOSUTNJAK",
        "operator": "RHSS",
        "wmo-id": 13275,
        "latitude": 44.7666666667,
        "longitude": 20.4166666667,
        "elevation": "203",
        "sonde": [
            "77"
        ]
    },
    {
        "name": "NIS",
        "operator": "RHSS",
        "wmo-id": 13388,
        "latitude": 43.3333333333,
        "longitude": 21.9,
        "elevation": "203",
        "sonde": [
            "77"
        ]
    },
    {
        "name": "LJUBLJANA/BEZIGRAD",
        "operator": "MOS",
        "wmo-id": 14015,
        "latitude": 46.0655056158,
        "longitude": 14.5123590017,
        "elevation": "299",
        "sonde": [
            "77"
        ]
    },
    {
        "name": "ZAGREB/MAKSIMIR",
        "operator": "MHSC",
        "wmo-id": 14240,
        "latitude": 45.8219444444,
        "longitude": 16.0336111111,
        "elevation": "123",
        "sonde": [
            "41"
        ]
    },
    {
        "name": "ZADAR RS",
        "operator": "MHSC",
        "wmo-id": 14430,
        "latitude": 44.0969444444,
        "longitude": 15.3402777778,
        "elevation": "78",
        "sonde": [
            "42"
        ]
    },
    {
        "name": "BUCURESTI BANEASA",
        "operator": "NMAR",
        "wmo-id": 15420,
        "latitude": 44.5104330044,
        "longitude": 26.0781904077,
        "elevation": "90",
        "sonde": [
            "41"
        ]
    },
    {
        "name": "SOFIA (OBSERV.)",
        "operator": "NIMH",
        "wmo-id": 15614,
        "latitude": 42.65,
        "longitude": 23.3833333333,
        "elevation": "595",
        "sonde": [
            "41"
        ]
    },
    {
        "name": "UDINE/RIVOLTO RDS",
        "operator": "AM-IMS",
        "wmo-id": 16045,
        "latitude": 45.9805555556,
        "longitude": 13.0591666667,
        "elevation": "50",
        "sonde": [
            "41"
        ]
    },
    {
        "name": "MILANO LINATE RDS",
        "operator": "AM-IMS",
        "wmo-id": 16080,
        "latitude": 45.4613888889,
        "longitude": 9.2830555556,
        "elevation": "104",
        "sonde": [
            "41"
        ]
    },
    {
        "name": "CUNEO-LEVALDIGI RDS",
        "operator": "AM-IMS",
        "wmo-id": 16113,
        "latitude": 44.5391666667,
        "longitude": 7.6125,
        "elevation": "385",
        "sonde": [
            "42"
        ]
    },
    {
        "name": "S. PIETRO CAPOFIUME RDS",
        "operator": "AM-IMS",
        "wmo-id": 16144,
        "latitude": 44.6538888889,
        "longitude": 11.6225,
        "elevation": "10",
        "sonde": [
            "24"
        ]
    },
    {
        "name": "PRATICA DI MARE RDS",
        "operator": "AM-IMS",
        "wmo-id": 16245,
        "latitude": 41.67,
        "longitude": 12.4508333333,
        "elevation": "32",
        "sonde": [
            "41"
        ]
    },
    {
        "name": "BRINDISI RDS",
        "operator": "AM-IMS",
        "wmo-id": 16320,
        "latitude": 40.6602777778,
        "longitude": 17.9566666667,
        "elevation": "14.5",
        "sonde": [
            "41"
        ]
    },
    {
        "name": "TRAPANI BIRGI RDS",
        "operator": "AM-IMS",
        "wmo-id": 16429,
        "latitude": 37.9141666667,
        "longitude": 12.4913888889,
        "elevation": "7.3",
        "sonde": [
            "41"
        ]
    },
    {
        "name": "DECIMOMANNU RDS",
        "operator": "AM-IMS",
        "wmo-id": 16546,
        "latitude": 39.3461111111,
        "longitude": 8.9675,
        "elevation": "29",
        "sonde": [
            "41"
        ]
    },
    {
        "name": "THESSALONIKI (AIRPORT)",
        "operator": "HNMS",
        "wmo-id": 16622,
        "latitude": 40.529,
        "longitude": 22.9703,
        "elevation": "1.68",
        "sonde": [
            "23"
        ]
    },
    {
        "name": "ATHINAI HELLINIKON",
        "operator": "HNMS",
        "wmo-id": 16716,
        "latitude": 37.8897222222,
        "longitude": 23.7416666667,
        "elevation": "43.13",
        "sonde": [
            "23"
        ]
    },
    {
        "name": "HERAKLEION (AIRPORT)",
        "operator": "HNMS",
        "wmo-id": 16754,
        "latitude": 35.3352777778,
        "longitude": 25.1819444444,
        "elevation": "35.05",
        "sonde": [
            "23"
        ]
    },
    {
        "name": "SAMSUN",
        "operator": "TSMS",
        "wmo-id": 17030,
        "latitude": 41.344167,
        "longitude": 36.256389,
        "elevation": "4",
        "sonde": [
            "35"
        ]
    },
    {
        "name": "ISTANBUL BOLGE (KARTAL)",
        "operator": "TSMS",
        "wmo-id": 17064,
        "latitude": 40.911345,
        "longitude": 29.155803,
        "elevation": "18",
        "sonde": [
            "35"
        ]
    },
    {
        "name": "ERZURUM BOLGE",
        "operator": "TSMS",
        "wmo-id": 17095,
        "latitude": 39.905833,
        "longitude": 41.254444,
        "elevation": "1860",
        "sonde": [
            "35"
        ]
    },
    {
        "name": "ANKARA B\u00d6LGE",
        "operator": "TSMS",
        "wmo-id": 17130,
        "latitude": 39.95,
        "longitude": 32.8833333333,
        "elevation": "891",
        "sonde": [
            "35",
            "17"
        ]
    },
    {
        "name": "IZMIR/GUZELYALI",
        "operator": "TSMS",
        "wmo-id": 17220,
        "latitude": 38.394873,
        "longitude": 27.081855,
        "elevation": "29",
        "sonde": [
            "35"
        ]
    },
    {
        "name": "ISPARTA",
        "operator": "TSMS",
        "wmo-id": 17240,
        "latitude": 37.784833,
        "longitude": 30.567912,
        "elevation": "997",
        "sonde": [
            "35"
        ]
    },
    {
        "name": "DIYARBAKIR-BOLGE",
        "operator": "TSMS",
        "wmo-id": 17281,
        "latitude": 37.9,
        "longitude": 40.2,
        "elevation": "675",
        "sonde": [
            "35"
        ]
    },
    {
        "name": "ADANA/BOLGE",
        "operator": "TSMS",
        "wmo-id": 17351,
        "latitude": 37.0041,
        "longitude": 35.3443,
        "elevation": "23",
        "sonde": [
            "35",
            "17"
        ]
    },
    {
        "name": "ATHALASSA",
        "operator": "DMCYP",
        "wmo-id": 17607,
        "latitude": 35.1408333333,
        "longitude": 33.3963888889,
        "elevation": "162",
        "sonde": [
            "14",
            "41",
            "23"
        ]
    },
    {
        "name": "POLARGMO IM. E.T. KRENKELJA",
        "operator": "Roshydromet",
        "wmo-id": 20046,
        "latitude": 80.6263888889,
        "longitude": 58.0588888889,
        "elevation": "21",
        "sonde": [
            "90",
            "62",
            "89",
            "11"
        ]
    },
    {
        "name": "GMO IM.E.K. FEDOROVA",
        "operator": "Roshydromet",
        "wmo-id": 20292,
        "latitude": 77.7130555556,
        "longitude": 104.2919444444,
        "elevation": "12",
        "sonde": [
            "90",
            "60",
            "62"
        ]
    },
    {
        "name": "OSTROV DIKSON",
        "operator": "Roshydromet",
        "wmo-id": 20674,
        "latitude": 73.5136111111,
        "longitude": 80.4063888889,
        "elevation": "42",
        "sonde": [
            "90"
        ]
    },
    {
        "name": "MALYE KARMAKULY (20744-1)",
        "operator": "Roshydromet",
        "wmo-id": 20744,
        "latitude": 72.3666666667,
        "longitude": 52.7,
        "elevation": "",
        "sonde": [
            "90"
        ]
    },
    {
        "name": "OSTROV KOTEL'NYJ",
        "operator": "Roshydromet",
        "wmo-id": 21432,
        "latitude": 76.0,
        "longitude": 137.8666666667,
        "elevation": "11.5",
        "sonde": [
            "89",
            "90"
        ]
    },
    {
        "name": "TIKSI",
        "operator": "Roshydromet",
        "wmo-id": 21824,
        "latitude": 71.5833333333,
        "longitude": 128.9166666667,
        "elevation": "6",
        "sonde": [
            "62",
            "90"
        ]
    },
    {
        "name": "CHOKURDAH",
        "operator": "Roshydromet",
        "wmo-id": 21946,
        "latitude": 70.6166666667,
        "longitude": 147.8833333333,
        "elevation": "44",
        "sonde": [
            "58",
            "27"
        ]
    },
    {
        "name": "KANDALAKSHA",
        "operator": "Roshydromet",
        "wmo-id": 22217,
        "latitude": 67.1691666667,
        "longitude": 32.3541666667,
        "elevation": "26",
        "sonde": [
            "62"
        ]
    },
    {
        "name": "SHOJNA",
        "operator": "Roshydromet",
        "wmo-id": 22271,
        "latitude": 67.8766666667,
        "longitude": 44.1741666667,
        "elevation": "4.83",
        "sonde": [
            "90"
        ]
    },
    {
        "name": "KEM'",
        "operator": "Roshydromet",
        "wmo-id": 22522,
        "latitude": 64.95,
        "longitude": 34.65,
        "elevation": "8",
        "sonde": [
            "29"
        ]
    },
    {
        "name": "ARHANGEL'SK (22543-0)",
        "operator": "Roshydromet",
        "wmo-id": 22543,
        "latitude": 64.6247222222,
        "longitude": 40.5113888889,
        "elevation": "4",
        "sonde": [
            "90",
            "89",
            "62"
        ]
    },
    {
        "name": "PETROZAVODSK",
        "operator": "Roshydromet",
        "wmo-id": 22820,
        "latitude": 61.8166666667,
        "longitude": 34.2666666667,
        "elevation": "110",
        "sonde": [
            "89",
            "90"
        ]
    },
    {
        "name": "KARGOPOL'",
        "operator": "Roshydromet",
        "wmo-id": 22845,
        "latitude": 61.5066666667,
        "longitude": 38.9347222222,
        "elevation": "124",
        "sonde": [
            "58"
        ]
    },
    {
        "name": "NORIL'SK",
        "operator": "Roshydromet",
        "wmo-id": 23078,
        "latitude": 69.3472222222,
        "longitude": 88.2638888889,
        "elevation": "60",
        "sonde": [
            "62"
        ]
    },
    {
        "name": "NAR'JAN-MAR",
        "operator": "Roshydromet",
        "wmo-id": 23205,
        "latitude": 67.625,
        "longitude": 53.0175,
        "elevation": "5.4",
        "sonde": [
            "90",
            "58"
        ]
    },
    {
        "name": "SALEHARD",
        "operator": "Roshydromet",
        "wmo-id": 23330,
        "latitude": 66.5319444444,
        "longitude": 66.6744444444,
        "elevation": "14.83",
        "sonde": [
            "90"
        ]
    },
    {
        "name": "PECHORA (23415-0)",
        "operator": "Roshydromet",
        "wmo-id": 23415,
        "latitude": 65.1166666667,
        "longitude": 57.1,
        "elevation": "56",
        "sonde": [
            "90"
        ]
    },
    {
        "name": "TURUHANSK",
        "operator": "Roshydromet",
        "wmo-id": 23472,
        "latitude": 65.7944444444,
        "longitude": 87.9888888889,
        "elevation": "41.96",
        "sonde": [
            "90"
        ]
    },
    {
        "name": "SYKTYVKAR (23802-0)",
        "operator": "Roshydromet",
        "wmo-id": 23802,
        "latitude": 61.6766666667,
        "longitude": 50.7805555556,
        "elevation": "116",
        "sonde": [
            "90",
            "62"
        ]
    },
    {
        "name": "BOR",
        "operator": "Roshydromet",
        "wmo-id": 23884,
        "latitude": 61.5805555556,
        "longitude": 90.0305555556,
        "elevation": "62",
        "sonde": [
            "58",
            "90"
        ]
    },
    {
        "name": "IVDEL'",
        "operator": "Roshydromet",
        "wmo-id": 23921,
        "latitude": 60.6833333333,
        "longitude": 60.45,
        "elevation": "93",
        "sonde": [
            "90",
            "28"
        ]
    },
    {
        "name": "HANTY-MANSIJSK",
        "operator": "Roshydromet",
        "wmo-id": 23933,
        "latitude": 61.0277777778,
        "longitude": 69.1188888889,
        "elevation": "44",
        "sonde": [
            "90",
            "89",
            "62"
        ]
    },
    {
        "name": "ALEKSANDROVSKOE",
        "operator": "Roshydromet",
        "wmo-id": 23955,
        "latitude": 60.4333333333,
        "longitude": 77.8666666667,
        "elevation": "47.01",
        "sonde": [
            "89"
        ]
    },
    {
        "name": "VERHOJANSK",
        "operator": "Roshydromet",
        "wmo-id": 24266,
        "latitude": 67.5666666667,
        "longitude": 133.4,
        "elevation": "135.9",
        "sonde": [
            "62"
        ]
    },
    {
        "name": "ZHIGANSK",
        "operator": "Roshydromet",
        "wmo-id": 24343,
        "latitude": 66.7666666667,
        "longitude": 123.4,
        "elevation": "87.81",
        "sonde": [
            "89",
            "90"
        ]
    },
    {
        "name": "TURA (24507-0)",
        "operator": "Roshydromet",
        "wmo-id": 24507,
        "latitude": 64.2694444444,
        "longitude": 100.2166666667,
        "elevation": "188",
        "sonde": [
            "90",
            "62"
        ]
    },
    {
        "name": "VILJUJSK",
        "operator": "Roshydromet",
        "wmo-id": 24641,
        "latitude": 63.7833333333,
        "longitude": 121.6166666667,
        "elevation": "110.76",
        "sonde": [
            "90",
            "58"
        ]
    },
    {
        "name": "OJMJAKON",
        "operator": "Roshydromet",
        "wmo-id": 24688,
        "latitude": 63.25,
        "longitude": 143.15,
        "elevation": "740.28",
        "sonde": [
            "90",
            "27"
        ]
    },
    {
        "name": "MIRNVY",
        "operator": "Roshydromet",
        "wmo-id": 24726,
        "latitude": 62.5333333333,
        "longitude": 113.8666666667,
        "elevation": "351.16",
        "sonde": [
            "90",
            "89"
        ]
    },
    {
        "name": "VANAVARA",
        "operator": "Roshydromet",
        "wmo-id": 24908,
        "latitude": 60.3361111111,
        "longitude": 102.2944444444,
        "elevation": "258.8",
        "sonde": [
            "58",
            "90"
        ]
    },
    {
        "name": "JAKUTSK",
        "operator": "Roshydromet",
        "wmo-id": 24959,
        "latitude": 62.0166666667,
        "longitude": 129.7166666667,
        "elevation": "98.25",
        "sonde": [
            "90"
        ]
    },
    {
        "name": "CHERSKIJ",
        "operator": "Roshydromet",
        "wmo-id": 25123,
        "latitude": 68.75,
        "longitude": 161.2833333333,
        "elevation": "32",
        "sonde": [
            "58",
            "60"
        ]
    },
    {
        "name": "OMOLON",
        "operator": "Roshydromet",
        "wmo-id": 25428,
        "latitude": 65.2333333333,
        "longitude": 160.5333333333,
        "elevation": "260",
        "sonde": [
            "62",
            "90"
        ]
    },
    {
        "name": "SEJMCHAN",
        "operator": "Roshydromet",
        "wmo-id": 25703,
        "latitude": 62.9166666667,
        "longitude": 152.4166666667,
        "elevation": "206.08",
        "sonde": [
            "90",
            "28"
        ]
    },
    {
        "name": "MAGADAN",
        "operator": "Roshydromet",
        "wmo-id": 25913,
        "latitude": 59.55,
        "longitude": 150.7833333333,
        "elevation": "115.33",
        "sonde": [
            "90"
        ]
    },
    {
        "name": "TALLINN-HARKU",
        "operator": "EstEA",
        "wmo-id": 26038,
        "latitude": 59.3981,
        "longitude": 24.6028,
        "elevation": "33.16",
        "sonde": [
            "77"
        ]
    },
    {
        "name": "BOLOGOE",
        "operator": "Roshydromet",
        "wmo-id": 26298,
        "latitude": 57.8833333333,
        "longitude": 34.0333333333,
        "elevation": "186",
        "sonde": [
            "90",
            "89"
        ]
    },
    {
        "name": "SKRIVERI",
        "operator": "LEGMA",
        "wmo-id": 26435,
        "latitude": 56.6425,
        "longitude": 25.1283333333,
        "elevation": "79.45",
        "sonde": [
            "41"
        ]
    },
    {
        "name": "VELIKIE LUKI",
        "operator": "Roshydromet",
        "wmo-id": 26477,
        "latitude": 56.35,
        "longitude": 30.6166666667,
        "elevation": "97",
        "sonde": [
            "90",
            "62"
        ]
    },
    {
        "name": "KALININGRAD",
        "operator": "Roshydromet",
        "wmo-id": 26702,
        "latitude": 54.7263888889,
        "longitude": 20.5583333333,
        "elevation": "19.04",
        "sonde": [
            "90"
        ]
    },
    {
        "name": "SMOLENSK",
        "operator": "Roshydromet",
        "wmo-id": 26781,
        "latitude": 54.75,
        "longitude": 32.0666666667,
        "elevation": "240",
        "sonde": [
            "62",
            "90"
        ]
    },
    {
        "name": "GOMEL (33041-1)",
        "operator": "Hydromet",
        "wmo-id": 26850,
        "latitude": 52.4019444444,
        "longitude": 30.9630555556,
        "elevation": "",
        "sonde": [
            "41"
        ]
    },
    {
        "name": "VOLOGDA (27038-0)",
        "operator": "Roshydromet",
        "wmo-id": 27038,
        "latitude": 59.3183333333,
        "longitude": 39.9255555556,
        "elevation": "124.71",
        "sonde": [
            "90"
        ]
    },
    {
        "name": "KIROV (27199-0)",
        "operator": "Roshydromet",
        "wmo-id": 27199,
        "latitude": 58.5666666667,
        "longitude": 49.5666666667,
        "elevation": "156.54",
        "sonde": [
            "29"
        ]
    },
    {
        "name": "NIZHNIJ NOVGOROD",
        "operator": "Roshydromet",
        "wmo-id": 27459,
        "latitude": 56.2666666667,
        "longitude": 44.0,
        "elevation": "161.1",
        "sonde": [
            "89",
            "62",
            "90"
        ]
    },
    {
        "name": "SUHINICHI",
        "operator": "Roshydromet",
        "wmo-id": 27707,
        "latitude": 54.1,
        "longitude": 35.35,
        "elevation": "237",
        "sonde": [
            "90",
            "58"
        ]
    },
    {
        "name": "RYAZAN'",
        "operator": "Roshydromet",
        "wmo-id": 27730,
        "latitude": 54.6333333333,
        "longitude": 39.7,
        "elevation": "155",
        "sonde": [
            "90",
            "62"
        ]
    },
    {
        "name": "PENZA",
        "operator": "Roshydromet",
        "wmo-id": 27962,
        "latitude": 53.1227777778,
        "longitude": 45.0188888889,
        "elevation": "169.49",
        "sonde": [
            "90"
        ]
    },
    {
        "name": "SAMARA (BEZENCHUK)",
        "operator": "Roshydromet",
        "wmo-id": 27995,
        "latitude": 52.9833333333,
        "longitude": 49.4333333333,
        "elevation": "44.72",
        "sonde": [
            "90"
        ]
    },
    {
        "name": "PERM' (28225-1)",
        "operator": "Roshydromet",
        "wmo-id": 28225,
        "latitude": 57.9583333333,
        "longitude": 56.1972222222,
        "elevation": "170",
        "sonde": [
            "90"
        ]
    },
    {
        "name": "TOBOL'SK",
        "operator": "Roshydromet",
        "wmo-id": 28275,
        "latitude": 58.15,
        "longitude": 68.25,
        "elevation": "55.34",
        "sonde": [
            "90",
            "62"
        ]
    },
    {
        "name": "EKATERINBURG (VERHNEE DUBROVO)",
        "operator": "Roshydromet",
        "wmo-id": 28445,
        "latitude": 56.7333333333,
        "longitude": 61.0666666667,
        "elevation": "286.14",
        "sonde": [
            "90"
        ]
    },
    {
        "name": "KURGAN",
        "operator": "Roshydromet",
        "wmo-id": 28661,
        "latitude": 55.4566666667,
        "longitude": 65.4011111111,
        "elevation": "70.78",
        "sonde": [
            "58"
        ]
    },
    {
        "name": "UFA-DIOMA",
        "operator": "Roshydromet",
        "wmo-id": 28722,
        "latitude": 54.7105555556,
        "longitude": 55.815,
        "elevation": "103.6",
        "sonde": [
            "62",
            "90"
        ]
    },
    {
        "name": "KOSTANAI",
        "operator": "KAZHYDROMET",
        "wmo-id": 28951,
        "latitude": 53.2333333333,
        "longitude": 63.6166666667,
        "elevation": "",
        "sonde": [
            "17"
        ]
    },
    {
        "name": "KOLPASEVO",
        "operator": "Roshydromet",
        "wmo-id": 29231,
        "latitude": 58.3166666667,
        "longitude": 82.95,
        "elevation": "72.9",
        "sonde": [
            "62",
            "90"
        ]
    },
    {
        "name": "ENISEJSK",
        "operator": "Roshydromet",
        "wmo-id": 29263,
        "latitude": 58.4527777778,
        "longitude": 92.2027777778,
        "elevation": "76.95",
        "sonde": [
            "90"
        ]
    },
    {
        "name": "BOGUCANY",
        "operator": "Roshydromet",
        "wmo-id": 29282,
        "latitude": 58.3833333333,
        "longitude": 97.45,
        "elevation": "130.99",
        "sonde": [
            "58"
        ]
    },
    {
        "name": "EMEL' YANOVO",
        "operator": "Roshydromet",
        "wmo-id": 29572,
        "latitude": 56.1805555556,
        "longitude": 92.6055555556,
        "elevation": "204.65",
        "sonde": [
            "29",
            "90",
            "62"
        ]
    },
    {
        "name": "BARABINSK",
        "operator": "Roshydromet",
        "wmo-id": 29612,
        "latitude": 55.3544444444,
        "longitude": 78.3083333333,
        "elevation": "118.59",
        "sonde": [
            "90",
            "28",
            "58"
        ]
    },
    {
        "name": "NOVOSIBIRSK (29634-1)",
        "operator": "Roshydromet",
        "wmo-id": 29634,
        "latitude": 54.9705555556,
        "longitude": 82.9530555556,
        "elevation": "",
        "sonde": [
            "62",
            "58",
            "90"
        ]
    },
    {
        "name": "NIZHNEUDINSK",
        "operator": "Roshydromet",
        "wmo-id": 29698,
        "latitude": 54.8833333333,
        "longitude": 99.0333333333,
        "elevation": "410.65",
        "sonde": [
            "69"
        ]
    },
    {
        "name": "BARNAUL (29839-0)",
        "operator": "Roshydromet",
        "wmo-id": 29839,
        "latitude": 53.5,
        "longitude": 83.8333333333,
        "elevation": "140.26",
        "sonde": [
            "90"
        ]
    },
    {
        "name": "ABAKAN",
        "operator": "Roshydromet",
        "wmo-id": 29862,
        "latitude": 53.7666666667,
        "longitude": 91.3166666667,
        "elevation": "253.6",
        "sonde": [
            "62",
            "90"
        ]
    },
    {
        "name": "VITIM",
        "operator": "Roshydromet",
        "wmo-id": 30054,
        "latitude": 59.45,
        "longitude": 112.5833333333,
        "elevation": "186",
        "sonde": [
            "90",
            "27"
        ]
    },
    {
        "name": "KIRENSK",
        "operator": "Roshydromet",
        "wmo-id": 30230,
        "latitude": 57.7666666667,
        "longitude": 108.0666666667,
        "elevation": "256.49",
        "sonde": [
            "62"
        ]
    },
    {
        "name": "CHARA",
        "operator": "Roshydromet",
        "wmo-id": 30372,
        "latitude": 56.9,
        "longitude": 118.2666666667,
        "elevation": "709",
        "sonde": [
            "90"
        ]
    },
    {
        "name": "UST'-BARGUZIN",
        "operator": "Roshydromet",
        "wmo-id": 30635,
        "latitude": 53.4166666667,
        "longitude": 109.0166666667,
        "elevation": "459",
        "sonde": [
            "62"
        ]
    },
    {
        "name": "MOGOCHA",
        "operator": "Roshydromet",
        "wmo-id": 30673,
        "latitude": 53.75,
        "longitude": 119.7333333333,
        "elevation": "624",
        "sonde": [
            "90"
        ]
    },
    {
        "name": "ANGARSK",
        "operator": "Roshydromet",
        "wmo-id": 30715,
        "latitude": 52.4833333333,
        "longitude": 103.85,
        "elevation": "435.53",
        "sonde": [
            "69"
        ]
    },
    {
        "name": "CHITA",
        "operator": "Roshydromet",
        "wmo-id": 30758,
        "latitude": 52.0833333333,
        "longitude": 113.4833333333,
        "elevation": "671",
        "sonde": [
            "90",
            "29"
        ]
    },
    {
        "name": "KRASNYJ CHIKOJ",
        "operator": "Roshydromet",
        "wmo-id": 30935,
        "latitude": 50.3666666667,
        "longitude": 108.75,
        "elevation": "770",
        "sonde": [
            "90"
        ]
    },
    {
        "name": "BORZYA",
        "operator": "Roshydromet",
        "wmo-id": 30965,
        "latitude": 50.4,
        "longitude": 116.5166666667,
        "elevation": "675",
        "sonde": [
            "90"
        ]
    },
    {
        "name": "ALDAN",
        "operator": "Roshydromet",
        "wmo-id": 31004,
        "latitude": 58.6166666667,
        "longitude": 125.3666666667,
        "elevation": "678.44",
        "sonde": [
            "90",
            "27"
        ]
    },
    {
        "name": "OHOTSK",
        "operator": "Roshydromet",
        "wmo-id": 31088,
        "latitude": 59.3666666667,
        "longitude": 143.2,
        "elevation": "4.6",
        "sonde": [
            "90",
            "58"
        ]
    },
    {
        "name": "AYAN",
        "operator": "Roshydromet",
        "wmo-id": 31168,
        "latitude": 56.45,
        "longitude": 138.15,
        "elevation": "6",
        "sonde": [
            "90"
        ]
    },
    {
        "name": "ZEJA",
        "operator": "Roshydromet",
        "wmo-id": 31300,
        "latitude": 53.7413888889,
        "longitude": 127.2763888889,
        "elevation": "228",
        "sonde": [
            "90",
            "69"
        ]
    },
    {
        "name": "NIKOLAEVSK-NA-AMURE",
        "operator": "Roshydromet",
        "wmo-id": 31369,
        "latitude": 53.1475,
        "longitude": 140.6938888889,
        "elevation": "44.77",
        "sonde": [
            "90"
        ]
    },
    {
        "name": "BLAGOVESCETNSK",
        "operator": "Roshydromet",
        "wmo-id": 31510,
        "latitude": 50.2802777778,
        "longitude": 127.4783333333,
        "elevation": "168",
        "sonde": [
            "90",
            "58",
            "69"
        ]
    },
    {
        "name": "SUTUR",
        "operator": "Roshydromet",
        "wmo-id": 31538,
        "latitude": 50.0666666667,
        "longitude": 132.1333333333,
        "elevation": "343.22",
        "sonde": [
            "90"
        ]
    },
    {
        "name": "HABAROVSK (31736-0)",
        "operator": "Roshydromet",
        "wmo-id": 31736,
        "latitude": 48.5333333333,
        "longitude": 135.2333333333,
        "elevation": "72",
        "sonde": [
            "90"
        ]
    },
    {
        "name": "SOVETSKAYA GAVAN'",
        "operator": "Roshydromet",
        "wmo-id": 31770,
        "latitude": 49.0,
        "longitude": 140.3,
        "elevation": "20.54",
        "sonde": [
            "90"
        ]
    },
    {
        "name": "DAL'NERECHENSK",
        "operator": "Roshydromet",
        "wmo-id": 31873,
        "latitude": 45.8666666667,
        "longitude": 133.7333333333,
        "elevation": "100",
        "sonde": [
            "90"
        ]
    },
    {
        "name": "VLADIVOSTOK (SAD GOROD)",
        "operator": "Roshydromet",
        "wmo-id": 31977,
        "latitude": 43.2666666667,
        "longitude": 132.05,
        "elevation": "77",
        "sonde": [
            "62",
            "90"
        ]
    },
    {
        "name": "ALEKSANDROVSK-SAHALINSKIJ",
        "operator": "Roshydromet",
        "wmo-id": 32061,
        "latitude": 50.9,
        "longitude": 142.1666666667,
        "elevation": "30",
        "sonde": [
            "62",
            "90"
        ]
    },
    {
        "name": "PORONAJSK",
        "operator": "Roshydromet",
        "wmo-id": 32098,
        "latitude": 49.2166666667,
        "longitude": 143.1,
        "elevation": "7",
        "sonde": [
            "90"
        ]
    },
    {
        "name": "JUZHNO-SAHALINSK",
        "operator": "Roshydromet",
        "wmo-id": 32150,
        "latitude": 46.95,
        "longitude": 142.7166666667,
        "elevation": "22",
        "sonde": [
            "90"
        ]
    },
    {
        "name": "SEVERO-KURIL'SK",
        "operator": "Roshydromet",
        "wmo-id": 32215,
        "latitude": 50.6833333333,
        "longitude": 156.1333333333,
        "elevation": "24",
        "sonde": [
            "90"
        ]
    },
    {
        "name": "KLJUCHI",
        "operator": "Roshydromet",
        "wmo-id": 32389,
        "latitude": 56.3166666667,
        "longitude": 160.8333333333,
        "elevation": "28",
        "sonde": [
            "90"
        ]
    },
    {
        "name": "SOBOLEVO",
        "operator": "Roshydromet",
        "wmo-id": 32477,
        "latitude": 54.3,
        "longitude": 155.9166666667,
        "elevation": "25",
        "sonde": [
            "62"
        ]
    },
    {
        "name": "PETROPAVLOVSK-KAMCHATSKIJ (32540-0)",
        "operator": "Roshydromet",
        "wmo-id": 32540,
        "latitude": 53.0833333333,
        "longitude": 158.5833333333,
        "elevation": "78",
        "sonde": [
            "90"
        ]
    },
    {
        "name": "OSTROV BERINGA",
        "operator": "Roshydromet",
        "wmo-id": 32618,
        "latitude": 55.2,
        "longitude": 165.9833333333,
        "elevation": "16",
        "sonde": [
            "90",
            "30"
        ]
    },
    {
        "name": "BREST (33008-1)",
        "operator": "Hydromet",
        "wmo-id": 33008,
        "latitude": 52.1166666667,
        "longitude": 23.6858333333,
        "elevation": "",
        "sonde": [
            "41"
        ]
    },
    {
        "name": "GOMEL (33041-1)",
        "operator": "Hydromet",
        "wmo-id": 33041,
        "latitude": 52.4019444444,
        "longitude": 30.9630555556,
        "elevation": "",
        "sonde": [
            "41"
        ]
    },
    {
        "name": "Shepetivka",
        "operator": "UHC",
        "wmo-id": 33317,
        "latitude": 50.161414,
        "longitude": 27.037047,
        "elevation": "278",
        "sonde": [
            "15"
        ]
    },
    {
        "name": "Kyiv",
        "operator": "UHC",
        "wmo-id": 33345,
        "latitude": 50.391792,
        "longitude": 30.535631,
        "elevation": "167",
        "sonde": [
            "16",
            "15"
        ]
    },
    {
        "name": "Lviv",
        "operator": "UHC",
        "wmo-id": 33393,
        "latitude": 49.807489,
        "longitude": 23.965106,
        "elevation": "323",
        "sonde": [
            "15"
        ]
    },
    {
        "name": "Kryvyi Rih",
        "operator": "UHC",
        "wmo-id": 33791,
        "latitude": 48.0537139,
        "longitude": 33.211139,
        "elevation": "124",
        "sonde": [
            "15"
        ]
    },
    {
        "name": "Odesa",
        "operator": "UHC",
        "wmo-id": 33837,
        "latitude": 46.440753,
        "longitude": 30.770336,
        "elevation": "42",
        "sonde": [
            "15"
        ]
    },
    {
        "name": "KURSK",
        "operator": "Roshydromet",
        "wmo-id": 34009,
        "latitude": 51.7666666667,
        "longitude": 36.1666666667,
        "elevation": "246.45",
        "sonde": [
            "90"
        ]
    },
    {
        "name": "VORONEZ (34122-0)",
        "operator": "Roshydromet",
        "wmo-id": 34122,
        "latitude": 51.65,
        "longitude": 39.25,
        "elevation": "100",
        "sonde": [
            "90",
            "27"
        ]
    },
    {
        "name": "SARATOV (34172-1)",
        "operator": "Roshydromet",
        "wmo-id": 34172,
        "latitude": 51.5566666667,
        "longitude": 46.0394444444,
        "elevation": "162.5",
        "sonde": [
            "90"
        ]
    },
    {
        "name": "KALACH",
        "operator": "Roshydromet",
        "wmo-id": 34247,
        "latitude": 50.4166666667,
        "longitude": 41.05,
        "elevation": "90.38",
        "sonde": [
            "90"
        ]
    },
    {
        "name": "Kharkiv",
        "operator": "UHC",
        "wmo-id": 34300,
        "latitude": 49.927978,
        "longitude": 36.282428,
        "elevation": "156",
        "sonde": [
            "16"
        ]
    },
    {
        "name": "VOLGOGRAD (34467-1)",
        "operator": "Roshydromet",
        "wmo-id": 34467,
        "latitude": 48.7833333333,
        "longitude": 44.3333333333,
        "elevation": "",
        "sonde": [
            "89",
            "90"
        ]
    },
    {
        "name": "ROSTOV-NA-DONU (34731-1)",
        "operator": "Roshydromet",
        "wmo-id": 34731,
        "latitude": 47.25,
        "longitude": 39.8166666667,
        "elevation": "",
        "sonde": [
            "90",
            "62"
        ]
    },
    {
        "name": "DIVNOE",
        "operator": "Roshydromet",
        "wmo-id": 34858,
        "latitude": 45.9166666667,
        "longitude": 43.35,
        "elevation": "85.91",
        "sonde": [
            "90",
            "59"
        ]
    },
    {
        "name": "ASTRAHAN' (34882-1)",
        "operator": "Roshydromet",
        "wmo-id": 34882,
        "latitude": 46.2833333333,
        "longitude": 47.9833333333,
        "elevation": "",
        "sonde": [
            "90",
            "29"
        ]
    },
    {
        "name": "ORENBURG",
        "operator": "Roshydromet",
        "wmo-id": 35121,
        "latitude": 51.6925,
        "longitude": 55.0783333333,
        "elevation": "114.81",
        "sonde": [
            "90"
        ]
    },
    {
        "name": "AKTOBE",
        "operator": "KAZHYDROMET",
        "wmo-id": 35229,
        "latitude": 50.2833333333,
        "longitude": 57.15,
        "elevation": "",
        "sonde": [
            "27",
            "17"
        ]
    },
    {
        "name": "OMSK (28698-1)",
        "operator": "Roshydromet",
        "wmo-id": 35394,
        "latitude": 54.9333333333,
        "longitude": 73.4,
        "elevation": "",
        "sonde": [
            "17"
        ]
    },
    {
        "name": "ZHEZKAZGAN",
        "operator": "KAZHYDROMET",
        "wmo-id": 35671,
        "latitude": 47.8,
        "longitude": 67.7166666667,
        "elevation": "",
        "sonde": [
            "27"
        ]
    },
    {
        "name": "ATYRAU",
        "operator": "KAZHYDROMET",
        "wmo-id": 35700,
        "latitude": 47.1166666667,
        "longitude": 51.9166666667,
        "elevation": "",
        "sonde": [
            "88"
        ]
    },
    {
        "name": "BARABINSK",
        "operator": "Roshydromet",
        "wmo-id": 36003,
        "latitude": 55.3544444444,
        "longitude": 78.3083333333,
        "elevation": "118.59",
        "sonde": [
            "88"
        ]
    },
    {
        "name": "KYZYL",
        "operator": "Roshydromet",
        "wmo-id": 36096,
        "latitude": 51.7166666667,
        "longitude": 94.5,
        "elevation": "626.13",
        "sonde": [
            "90",
            "62"
        ]
    },
    {
        "name": "ALMATY (36872-0)",
        "operator": "KAZHYDROMET",
        "wmo-id": 36872,
        "latitude": 43.3633333333,
        "longitude": 77.0041666667,
        "elevation": "",
        "sonde": [
            "89"
        ]
    },
    {
        "name": "TUAPSE (37011-1)",
        "operator": "Roshydromet",
        "wmo-id": 37011,
        "latitude": 44.1,
        "longitude": 39.0333333333,
        "elevation": "94.63",
        "sonde": [
            "62"
        ]
    },
    {
        "name": "MINERAL'NYE VODY (37055-1)",
        "operator": "Roshydromet",
        "wmo-id": 37055,
        "latitude": 44.2166666667,
        "longitude": 43.1,
        "elevation": "",
        "sonde": [
            "89",
            "90"
        ]
    },
    {
        "name": "MAHACHKALA (37259-1)",
        "operator": "Roshydromet",
        "wmo-id": 37259,
        "latitude": 43.0,
        "longitude": 47.5,
        "elevation": "-19.74",
        "sonde": [
            "90",
            "89"
        ]
    },
    {
        "name": "YEREVAN AERO",
        "operator": "ASHMS",
        "wmo-id": 37789,
        "latitude": 40.2169444444,
        "longitude": 44.5016666667,
        "elevation": "1139.7",
        "sonde": [
            "77"
        ]
    },
    {
        "name": "KYZYLORDA (38064-0)",
        "operator": "KAZHYDROMET",
        "wmo-id": 38064,
        "latitude": 44.7666666667,
        "longitude": 65.5166666667,
        "elevation": "",
        "sonde": [
            "09"
        ]
    },
    {
        "name": "TARAZ",
        "operator": "KAZHYDROMET",
        "wmo-id": 38341,
        "latitude": 42.85,
        "longitude": 71.3,
        "elevation": "",
        "sonde": [
            "27",
            "88"
        ]
    },
    {
        "name": "BET DAGAN",
        "operator": "IMS",
        "wmo-id": 40179,
        "latitude": 32.0,
        "longitude": 34.8166666667,
        "elevation": "",
        "sonde": [
            "41"
        ]
    },
    {
        "name": "ASHDOD NORTH",
        "operator": "IMS",
        "wmo-id": 40186,
        "latitude": 31.8666666667,
        "longitude": 34.6833333333,
        "elevation": "",
        "sonde": [
            "07"
        ]
    },
    {
        "name": "MAFRAQ",
        "operator": "JMD",
        "wmo-id": 40265,
        "latitude": 32.3666666667,
        "longitude": 36.25,
        "elevation": "683",
        "sonde": [
            "17"
        ]
    },
    {
        "name": "AL-QAISUMAH",
        "operator": "",
        "wmo-id": 40373,
        "latitude": 28.3166666667,
        "longitude": 46.1333333333,
        "elevation": "358",
        "sonde": [
            "41"
        ]
    },
    {
        "name": "TABUK",
        "operator": "",
        "wmo-id": 40375,
        "latitude": 28.3833333333,
        "longitude": 36.6,
        "elevation": "778",
        "sonde": [
            "41"
        ]
    },
    {
        "name": "HAIL",
        "operator": "",
        "wmo-id": 40394,
        "latitude": 27.4333333333,
        "longitude": 41.6833333333,
        "elevation": "1015",
        "sonde": [
            "41"
        ]
    },
    {
        "name": "K.F.I.A. (KING FAHAD INT. AIRPORT) DAMMAM",
        "operator": "",
        "wmo-id": 40417,
        "latitude": 26.45,
        "longitude": 49.8166666667,
        "elevation": "22",
        "sonde": [
            "41"
        ]
    },
    {
        "name": "AL-MADINAH",
        "operator": "",
        "wmo-id": 40430,
        "latitude": 24.55,
        "longitude": 39.7,
        "elevation": "654",
        "sonde": [
            "41"
        ]
    },
    {
        "name": "KING KHALED INT. AIRPORT",
        "operator": "",
        "wmo-id": 40437,
        "latitude": 24.9333333333,
        "longitude": 46.7166666667,
        "elevation": "614",
        "sonde": [
            "41"
        ]
    },
    {
        "name": "TABRIZ",
        "operator": "IRIMO",
        "wmo-id": 40706,
        "latitude": 38.1222,
        "longitude": 46.2425,
        "elevation": "1361",
        "sonde": [
            "77"
        ]
    },
    {
        "name": "MASHHAD",
        "operator": "IRIMO",
        "wmo-id": 40745,
        "latitude": 36.2363,
        "longitude": 59.6311,
        "elevation": "999.2",
        "sonde": [
            "77"
        ]
    },
    {
        "name": "TEHRAN-MEHRABAD",
        "operator": "IRIMO",
        "wmo-id": 40754,
        "latitude": 35.6933,
        "longitude": 51.3094,
        "elevation": "1191",
        "sonde": [
            "77"
        ]
    },
    {
        "name": "KERMANSHAH",
        "operator": "IRIMO",
        "wmo-id": 40766,
        "latitude": 34.3522,
        "longitude": 47.1533,
        "elevation": "1318.5",
        "sonde": [
            "77"
        ]
    },
    {
        "name": "ESFAHAN",
        "operator": "IRIMO",
        "wmo-id": 40800,
        "latitude": 32.5175,
        "longitude": 51.7061,
        "elevation": "1550.4",
        "sonde": [
            "77"
        ]
    },
    {
        "name": "BIRJAND",
        "operator": "IRIMO",
        "wmo-id": 40809,
        "latitude": 32.8905,
        "longitude": 59.2836,
        "elevation": "1491",
        "sonde": [
            "77"
        ]
    },
    {
        "name": "AHWAZ",
        "operator": "IRIMO",
        "wmo-id": 40811,
        "latitude": 31.3447,
        "longitude": 48.7441,
        "elevation": "22.5",
        "sonde": [
            "77"
        ]
    },
    {
        "name": "KERMAN",
        "operator": "IRIMO",
        "wmo-id": 40841,
        "latitude": 30.25,
        "longitude": 56.9666666667,
        "elevation": "1748",
        "sonde": [
            "77"
        ]
    },
    {
        "name": "SHIRAZ",
        "operator": "IRIMO",
        "wmo-id": 40848,
        "latitude": 29.5613,
        "longitude": 52.6025,
        "elevation": "1488",
        "sonde": [
            "77"
        ]
    },
    {
        "name": "BIRJAND",
        "operator": "IRIMO",
        "wmo-id": 40856,
        "latitude": 32.8905,
        "longitude": 59.2836,
        "elevation": "1491",
        "sonde": [
            "77"
        ]
    },
    {
        "name": "KABUL AIRPORT",
        "operator": "AMA",
        "wmo-id": 40948,
        "latitude": 34.55,
        "longitude": 69.2166666667,
        "elevation": "",
        "sonde": [
            "23"
        ]
    },
    {
        "name": "JEDDAH (KING ABDUL AZIZ INT. AIRPORT)",
        "operator": "",
        "wmo-id": 41024,
        "latitude": 21.7,
        "longitude": 39.1833333333,
        "elevation": "15",
        "sonde": [
            "41"
        ]
    },
    {
        "name": "ABHA",
        "operator": "",
        "wmo-id": 41112,
        "latitude": 18.2333333333,
        "longitude": 42.65,
        "elevation": "2090",
        "sonde": [
            "41"
        ]
    },
    {
        "name": "ABU DHABI INTERNATIONAL AIRPORT",
        "operator": "NCMS",
        "wmo-id": 41217,
        "latitude": 24.4333333333,
        "longitude": 54.65,
        "elevation": "16",
        "sonde": [
            "41"
        ]
    },
    {
        "name": "MUSCAT INT'L AIRPORT",
        "operator": "MetOman",
        "wmo-id": 41256,
        "latitude": 23.608673211,
        "longitude": 58.2614592121,
        "elevation": "2",
        "sonde": [
            "41"
        ]
    },
    {
        "name": "SALALAH AIRPORT",
        "operator": "MetOman",
        "wmo-id": 41316,
        "latitude": 17.0346360021,
        "longitude": 54.073684221,
        "elevation": "20",
        "sonde": [
            "41"
        ]
    },
    {
        "name": "AGARTALA",
        "operator": "IMD",
        "wmo-id": 41891,
        "latitude": 23.8833333333,
        "longitude": 91.25,
        "elevation": "16",
        "sonde": [
            "07"
        ]
    },
    {
        "name": "CHITTAGONG (AMBAGAN)",
        "operator": "BMD",
        "wmo-id": 41977,
        "latitude": 22.35,
        "longitude": 91.8166666667,
        "elevation": "33",
        "sonde": [
            "07"
        ]
    },
    {
        "name": "SRINAGAR (42027-0)",
        "operator": "IMD",
        "wmo-id": 42027,
        "latitude": 34.0833333333,
        "longitude": 74.8333333333,
        "elevation": "1585",
        "sonde": [
            "21"
        ]
    },
    {
        "name": "LAHORE CITY",
        "operator": "PMD",
        "wmo-id": 42056,
        "latitude": 31.55,
        "longitude": 74.3333333333,
        "elevation": "214",
        "sonde": [
            "21"
        ]
    },
    {
        "name": "PATIALA",
        "operator": "IMD",
        "wmo-id": 42101,
        "latitude": 30.3333333333,
        "longitude": 76.4666666667,
        "elevation": "251",
        "sonde": [
            "21"
        ]
    },
    {
        "name": "NEW DELHI/SAFDARJUNG",
        "operator": "IMD",
        "wmo-id": 42182,
        "latitude": 28.5833333333,
        "longitude": 77.2,
        "elevation": "211",
        "sonde": [
            "17"
        ]
    },
    {
        "name": "BOGRA",
        "operator": "BMD",
        "wmo-id": 42299,
        "latitude": 24.85,
        "longitude": 89.3666666667,
        "elevation": "18",
        "sonde": [
            "21"
        ]
    },
    {
        "name": "DIBRUGARH /MOHANBARI",
        "operator": "IMD",
        "wmo-id": 42314,
        "latitude": 27.4833333333,
        "longitude": 95.0166666667,
        "elevation": "110",
        "sonde": [
            "21"
        ]
    },
    {
        "name": "JODHPUR",
        "operator": "IMD",
        "wmo-id": 42339,
        "latitude": 26.3,
        "longitude": 73.0166666667,
        "elevation": "217",
        "sonde": [
            "21"
        ]
    },
    {
        "name": "GWALIOR",
        "operator": "IMD",
        "wmo-id": 42361,
        "latitude": 26.2333333333,
        "longitude": 78.25,
        "elevation": "205",
        "sonde": [
            "21"
        ]
    },
    {
        "name": "LUCKNOW/AMAUSI",
        "operator": "IMD",
        "wmo-id": 42369,
        "latitude": 26.75,
        "longitude": 80.8833333333,
        "elevation": "122",
        "sonde": [
            "21"
        ]
    },
    {
        "name": "GORAKHPUR",
        "operator": "IMD",
        "wmo-id": 42379,
        "latitude": 26.75,
        "longitude": 83.3666666667,
        "elevation": "78.3",
        "sonde": [
            "21"
        ]
    },
    {
        "name": "GUWAHATI",
        "operator": "IMD",
        "wmo-id": 42410,
        "latitude": 26.1,
        "longitude": 91.5833333333,
        "elevation": "54",
        "sonde": [
            "17"
        ]
    },
    {
        "name": "PATNA",
        "operator": "IMD",
        "wmo-id": 42492,
        "latitude": 25.6,
        "longitude": 85.1666666667,
        "elevation": "51",
        "sonde": [
            "21"
        ]
    },
    {
        "name": "AHMADABAD",
        "operator": "IMD",
        "wmo-id": 42647,
        "latitude": 23.0666666667,
        "longitude": 72.6333333333,
        "elevation": "55",
        "sonde": [
            "21"
        ]
    },
    {
        "name": "BHOPAL/BAIRAGHAR",
        "operator": "IMD",
        "wmo-id": 42667,
        "latitude": 23.2833333333,
        "longitude": 77.35,
        "elevation": "522",
        "sonde": [
            "21"
        ]
    },
    {
        "name": "M.O. RANCHI",
        "operator": "IMD",
        "wmo-id": 42701,
        "latitude": 23.3166666667,
        "longitude": 85.3166666667,
        "elevation": "646",
        "sonde": [
            "21"
        ]
    },
    {
        "name": "AGARTALA",
        "operator": "IMD",
        "wmo-id": 42724,
        "latitude": 23.8833333333,
        "longitude": 91.25,
        "elevation": "16",
        "sonde": [
            "21"
        ]
    },
    {
        "name": "KOLKATA/DUM DUM",
        "operator": "IMD",
        "wmo-id": 42809,
        "latitude": 22.65,
        "longitude": 88.45,
        "elevation": "6",
        "sonde": [
            "17"
        ]
    },
    {
        "name": "NAGPUR SONEGAON",
        "operator": "IMD",
        "wmo-id": 42867,
        "latitude": 21.1,
        "longitude": 79.05,
        "elevation": "310",
        "sonde": [
            "17"
        ]
    },
    {
        "name": "PBO RAIPUR",
        "operator": "IMD",
        "wmo-id": 42874,
        "latitude": 21.2333333333,
        "longitude": 81.65,
        "elevation": "296",
        "sonde": [
            "21"
        ]
    },
    {
        "name": "BHUBANESHWAR",
        "operator": "IMD",
        "wmo-id": 42971,
        "latitude": 20.25,
        "longitude": 85.8333333333,
        "elevation": "45",
        "sonde": [
            "21"
        ]
    },
    {
        "name": "BOMBAY / SANTACRUZ",
        "operator": "IMD",
        "wmo-id": 43003,
        "latitude": 19.1166666667,
        "longitude": 72.85,
        "elevation": "14.2",
        "sonde": [
            "17"
        ]
    },
    {
        "name": "JAGDALPUR",
        "operator": "IMD",
        "wmo-id": 43041,
        "latitude": 19.0833333333,
        "longitude": 82.0333333333,
        "elevation": "554",
        "sonde": [
            "21"
        ]
    },
    {
        "name": "BOMBAY / SANTACRUZ",
        "operator": "IMD",
        "wmo-id": 43063,
        "latitude": 19.1166666667,
        "longitude": 72.85,
        "elevation": "14.2",
        "sonde": [
            "21"
        ]
    },
    {
        "name": "HYDERABAD AIRPORT",
        "operator": "IMD",
        "wmo-id": 43128,
        "latitude": 17.45,
        "longitude": 78.4666666667,
        "elevation": "530",
        "sonde": [
            "21"
        ]
    },
    {
        "name": "VISHAKHAPATNAM/WALTAIR",
        "operator": "IMD",
        "wmo-id": 43150,
        "latitude": 17.6833333333,
        "longitude": 83.3,
        "elevation": "",
        "sonde": [
            "21"
        ]
    },
    {
        "name": "MACHILIPATNAM/FRANCHPET",
        "operator": "IMD",
        "wmo-id": 43185,
        "latitude": 16.2,
        "longitude": 81.15,
        "elevation": "3.05",
        "sonde": [
            "21"
        ]
    },
    {
        "name": "GOA/PANJIM",
        "operator": "IMD",
        "wmo-id": 43192,
        "latitude": 15.4833333333,
        "longitude": 73.8166666667,
        "elevation": "58.4",
        "sonde": [
            "21"
        ]
    },
    {
        "name": "CHENNAI/MINAMBAKKAM",
        "operator": "IMD",
        "wmo-id": 43279,
        "latitude": 13.0,
        "longitude": 80.1833333333,
        "elevation": "13.7",
        "sonde": [
            "17"
        ]
    },
    {
        "name": "MANGALORE/PANAMBUR",
        "operator": "IMD",
        "wmo-id": 43285,
        "latitude": 12.95,
        "longitude": 74.8333333333,
        "elevation": "30.8",
        "sonde": [
            "21"
        ]
    },
    {
        "name": "BANGALORE",
        "operator": "IMD",
        "wmo-id": 43295,
        "latitude": 12.9666666667,
        "longitude": 77.5833333333,
        "elevation": "917",
        "sonde": [
            "21"
        ]
    },
    {
        "name": "AMINIDIVI",
        "operator": "IMD",
        "wmo-id": 43311,
        "latitude": 11.1166666667,
        "longitude": 72.7333333333,
        "elevation": "2.7",
        "sonde": [
            "21"
        ]
    },
    {
        "name": "PORT BLAIR",
        "operator": "IMD",
        "wmo-id": 43333,
        "latitude": 11.6666666667,
        "longitude": 92.7166666667,
        "elevation": "79",
        "sonde": [
            "21"
        ]
    },
    {
        "name": "KARAIKAL",
        "operator": "IMD",
        "wmo-id": 43346,
        "latitude": 10.9166666667,
        "longitude": 79.8333333333,
        "elevation": "6.95",
        "sonde": [
            "21"
        ]
    },
    {
        "name": "THIRUVANANTHAPURAM (43371-0)",
        "operator": "IMD",
        "wmo-id": 43353,
        "latitude": 8.4833333333,
        "longitude": 76.95,
        "elevation": "59.9",
        "sonde": [
            "21"
        ]
    },
    {
        "name": "MINICOY",
        "operator": "IMD",
        "wmo-id": 43369,
        "latitude": 8.3,
        "longitude": 73.15,
        "elevation": "0.9",
        "sonde": [
            "21"
        ]
    },
    {
        "name": "THIRUVANANTHAPURAM (43371-0)",
        "operator": "IMD",
        "wmo-id": 43371,
        "latitude": 8.4833333333,
        "longitude": 76.95,
        "elevation": "59.9",
        "sonde": [
            "21"
        ]
    },
    {
        "name": "COLOMBO",
        "operator": "KVD",
        "wmo-id": 43466,
        "latitude": 6.9,
        "longitude": 79.8666666667,
        "elevation": "7",
        "sonde": [
            "07",
            "35"
        ]
    },
    {
        "name": "GAN",
        "operator": "MMS",
        "wmo-id": 43599,
        "latitude": -0.6933333333,
        "longitude": 73.1555555556,
        "elevation": "1.8",
        "sonde": [
            "99"
        ]
    },
    {
        "name": "ULAANGOM",
        "operator": "IMH",
        "wmo-id": 44212,
        "latitude": 49.9714,
        "longitude": 92.0778,
        "elevation": "939.1",
        "sonde": [
            "77"
        ]
    },
    {
        "name": "MUREN",
        "operator": "IMH",
        "wmo-id": 44231,
        "latitude": 49.6384,
        "longitude": 100.167,
        "elevation": "1291",
        "sonde": [
            "77"
        ]
    },
    {
        "name": "DALANZADGAD",
        "operator": "IMH",
        "wmo-id": 44373,
        "latitude": 43.5772,
        "longitude": 104.4181,
        "elevation": "1462",
        "sonde": [
            "33"
        ]
    },
    {
        "name": "QINGYUAN (59280-0)",
        "operator": "CMA",
        "wmo-id": 45004,
        "latitude": 23.7166666667,
        "longitude": 113.0833333333,
        "elevation": "79.2",
        "sonde": [
            "41"
        ]
    },
    {
        "name": "BAENGNYEONGDO",
        "operator": "KMA",
        "wmo-id": 47102,
        "latitude": 37.97396,
        "longitude": 124.71241,
        "elevation": "36",
        "sonde": [
            "21",
            "12",
            "45"
        ]
    },
    {
        "name": "OSAN AB",
        "operator": "KMA",
        "wmo-id": 47104,
        "latitude": 37.0833333333,
        "longitude": 127.0333333333,
        "elevation": "11.8",
        "sonde": [
            "45",
            "77"
        ]
    },
    {
        "name": "OSAN AB",
        "operator": "KMA",
        "wmo-id": 47122,
        "latitude": 37.0833333333,
        "longitude": 127.0333333333,
        "elevation": "11.8",
        "sonde": [
            "21"
        ]
    },
    {
        "name": "POHANG",
        "operator": "KMA",
        "wmo-id": 47138,
        "latitude": 36.0319444444,
        "longitude": 129.38,
        "elevation": "2.88",
        "sonde": [
            "21",
            "12",
            "45"
        ]
    },
    {
        "name": "CHANGWON",
        "operator": "KMA",
        "wmo-id": 47155,
        "latitude": 35.1702777778,
        "longitude": 128.5727777778,
        "elevation": "37.67",
        "sonde": [
            "42"
        ]
    },
    {
        "name": "GWANGJU AB",
        "operator": "KMA",
        "wmo-id": 47158,
        "latitude": 35.1166666667,
        "longitude": 126.8,
        "elevation": "12.5",
        "sonde": [
            "45",
            "21"
        ]
    },
    {
        "name": "HEUKSANDO",
        "operator": "KMA",
        "wmo-id": 47169,
        "latitude": 34.6872222222,
        "longitude": 125.4511111111,
        "elevation": "77.07",
        "sonde": [
            "45"
        ]
    },
    {
        "name": "WAKKANAI",
        "operator": "JMA",
        "wmo-id": 47401,
        "latitude": 45.41527777,
        "longitude": 141.67861111,
        "elevation": "2.85",
        "sonde": [
            "35"
        ]
    },
    {
        "name": "SAPPORO",
        "operator": "JMA",
        "wmo-id": 47412,
        "latitude": 43.06,
        "longitude": 141.3286111111,
        "elevation": "17.45",
        "sonde": [
            "35"
        ]
    },
    {
        "name": "KUSHIRO (47418-1)",
        "operator": "JMA",
        "wmo-id": 47418,
        "latitude": 42.9530555556,
        "longitude": 144.4375,
        "elevation": "14",
        "sonde": [
            "42"
        ]
    },
    {
        "name": "MISAWA AB",
        "operator": "JMA",
        "wmo-id": 47580,
        "latitude": 40.7052777778,
        "longitude": 141.3719444444,
        "elevation": "36.27",
        "sonde": [
            "22"
        ]
    },
    {
        "name": "AKITA (47582-1)",
        "operator": "JMA",
        "wmo-id": 47582,
        "latitude": 39.7175,
        "longitude": 140.0991666667,
        "elevation": "6.3",
        "sonde": [
            "35"
        ]
    },
    {
        "name": "WAJIMA",
        "operator": "JMA",
        "wmo-id": 47600,
        "latitude": 37.3913888889,
        "longitude": 136.8952777778,
        "elevation": "5.16",
        "sonde": [
            "42"
        ]
    },
    {
        "name": "TATENO",
        "operator": "JMA",
        "wmo-id": 47646,
        "latitude": 36.0580555556,
        "longitude": 140.1258333333,
        "elevation": "25.2",
        "sonde": [
            "35"
        ]
    },
    {
        "name": "HAMAMATSU AB",
        "operator": "JMA",
        "wmo-id": 47678,
        "latitude": 34.7502777778,
        "longitude": 137.7030555556,
        "elevation": "45.72",
        "sonde": [
            "35"
        ]
    },
    {
        "name": "HAMAMATSU AB",
        "operator": "JMA",
        "wmo-id": 47681,
        "latitude": 34.7502777778,
        "longitude": 137.7030555556,
        "elevation": "45.72",
        "sonde": [
            "22"
        ]
    },
    {
        "name": "MATSUE",
        "operator": "JMA",
        "wmo-id": 47741,
        "latitude": 35.4572222222,
        "longitude": 133.0655555556,
        "elevation": "16.9",
        "sonde": [
            "42"
        ]
    },
    {
        "name": "SHIONOMISAKI (47778-1)",
        "operator": "JMA",
        "wmo-id": 47778,
        "latitude": 33.4502777778,
        "longitude": 135.7572222222,
        "elevation": "67.53",
        "sonde": [
            "42"
        ]
    },
    {
        "name": "FUKUOKA",
        "operator": "JMA",
        "wmo-id": 47807,
        "latitude": 33.5822222222,
        "longitude": 130.3763888889,
        "elevation": "2.5",
        "sonde": [
            "35"
        ]
    },
    {
        "name": "KAGOSHIMA",
        "operator": "JMA",
        "wmo-id": 47827,
        "latitude": 31.555,
        "longitude": 130.5480555556,
        "elevation": "3.9",
        "sonde": [
            "35"
        ]
    },
    {
        "name": "NAZE/FUNCHATOGE",
        "operator": "JMA",
        "wmo-id": 47909,
        "latitude": 28.3941666667,
        "longitude": 129.5527777778,
        "elevation": "293.7",
        "sonde": [
            "35"
        ]
    },
    {
        "name": "ISHIGAKIJIMA",
        "operator": "JMA",
        "wmo-id": 47918,
        "latitude": 24.3366666667,
        "longitude": 124.1644444444,
        "elevation": "5.7",
        "sonde": [
            "35"
        ]
    },
    {
        "name": "MINAMIDAITOJIMA",
        "operator": "JMA",
        "wmo-id": 47945,
        "latitude": 25.8288888889,
        "longitude": 131.2286111111,
        "elevation": "15.3",
        "sonde": [
            "35"
        ]
    },
    {
        "name": "CHICHIJIMA",
        "operator": "JMA",
        "wmo-id": 47971,
        "latitude": 27.0922222222,
        "longitude": 142.1913888889,
        "elevation": "2.7",
        "sonde": [
            "35"
        ]
    },
    {
        "name": "MINAMITORISHIMA",
        "operator": "JMA",
        "wmo-id": 47991,
        "latitude": 24.2883333333,
        "longitude": 153.9833333333,
        "elevation": "7.1",
        "sonde": [
            "35"
        ]
    },
    {
        "name": "CHIANG MAI",
        "operator": "TMD",
        "wmo-id": 48327,
        "latitude": 18.7705555556,
        "longitude": 98.9683333333,
        "elevation": "313.2",
        "sonde": [
            "78"
        ]
    },
    {
        "name": "UBON RATCHATHANI",
        "operator": "TMD",
        "wmo-id": 48407,
        "latitude": 15.25,
        "longitude": 104.8666666667,
        "elevation": "122",
        "sonde": [
            "97"
        ]
    },
    {
        "name": "PHUKET AIRPORT",
        "operator": "TMD",
        "wmo-id": 48565,
        "latitude": 8.145,
        "longitude": 98.3144444444,
        "elevation": "5.86",
        "sonde": [
            "97"
        ]
    },
    {
        "name": "SONGKHLA",
        "operator": "TMD",
        "wmo-id": 48568,
        "latitude": 7.1819444444,
        "longitude": 100.6075,
        "elevation": "4.57",
        "sonde": [
            "97"
        ]
    },
    {
        "name": "PENANG/BAYAN LEPAS",
        "operator": "MMD",
        "wmo-id": 48601,
        "latitude": 5.3,
        "longitude": 100.2666666667,
        "elevation": "2",
        "sonde": [
            "17"
        ]
    },
    {
        "name": "KOTA BHARU",
        "operator": "MMD",
        "wmo-id": 48615,
        "latitude": 6.1666666667,
        "longitude": 102.2833333333,
        "elevation": "4",
        "sonde": [
            "17"
        ]
    },
    {
        "name": "KUALA LUMPUR INTERNATIONAL AIRPORT (KLIA)",
        "operator": "MMD",
        "wmo-id": 48650,
        "latitude": 2.7166666667,
        "longitude": 101.7,
        "elevation": "16",
        "sonde": [
            "17"
        ]
    },
    {
        "name": "KUANTAN",
        "operator": "MMD",
        "wmo-id": 48657,
        "latitude": 3.7833333333,
        "longitude": 103.2166666667,
        "elevation": "15",
        "sonde": [
            "17"
        ]
    },
    {
        "name": "SINGAPORE/CHANGI AIRPORT",
        "operator": "MSS-NEA",
        "wmo-id": 48698,
        "latitude": 1.3679,
        "longitude": 103.9824,
        "elevation": "14",
        "sonde": [
            "41"
        ]
    },
    {
        "name": "MENGZI",
        "operator": "CMA",
        "wmo-id": 48811,
        "latitude": 23.4444444444,
        "longitude": 103.3277777778,
        "elevation": "",
        "sonde": [
            "41"
        ]
    },
    {
        "name": "HA NOI",
        "operator": "NHMS",
        "wmo-id": 48820,
        "latitude": 21.0333333333,
        "longitude": 105.8,
        "elevation": "5",
        "sonde": [
            "41",
            "80"
        ]
    },
    {
        "name": "BACH LONG VI",
        "operator": "NHMS",
        "wmo-id": 48839,
        "latitude": 20.1333333333,
        "longitude": 107.7166666667,
        "elevation": "56",
        "sonde": [
            "41",
            "80"
        ]
    },
    {
        "name": "HA NOI",
        "operator": "NHMS",
        "wmo-id": 48845,
        "latitude": 21.0333333333,
        "longitude": 105.8,
        "elevation": "5",
        "sonde": [
            "41",
            "80"
        ]
    },
    {
        "name": "DA NANG",
        "operator": "NHMS",
        "wmo-id": 48855,
        "latitude": 16.0666666667,
        "longitude": 108.35,
        "elevation": "7",
        "sonde": [
            "41",
            "80"
        ]
    },
    {
        "name": "TAN SON HOA",
        "operator": "NHMS",
        "wmo-id": 48900,
        "latitude": 10.8166666667,
        "longitude": 106.6666666667,
        "elevation": "5",
        "sonde": [
            "41",
            "80"
        ]
    },
    {
        "name": "HAILAR (50527-1)",
        "operator": "CMA",
        "wmo-id": 50527,
        "latitude": 49.25,
        "longitude": 119.7,
        "elevation": "",
        "sonde": [
            "33"
        ]
    },
    {
        "name": "NENJIANG",
        "operator": "CMA",
        "wmo-id": 50557,
        "latitude": 49.1666666667,
        "longitude": 125.2333333333,
        "elevation": "",
        "sonde": [
            "32"
        ]
    },
    {
        "name": "YICHUN (50774-1)",
        "operator": "CMA",
        "wmo-id": 50774,
        "latitude": 47.7166666667,
        "longitude": 128.8333333333,
        "elevation": "",
        "sonde": [
            "32"
        ]
    },
    {
        "name": "HARBIN (50953-1)",
        "operator": "CMA",
        "wmo-id": 50953,
        "latitude": 45.9333333333,
        "longitude": 126.5666666667,
        "elevation": "",
        "sonde": [
            "32"
        ]
    },
    {
        "name": "ALTAY",
        "operator": "CMA",
        "wmo-id": 51076,
        "latitude": 47.7333333333,
        "longitude": 88.0833333333,
        "elevation": "",
        "sonde": [
            "32"
        ]
    },
    {
        "name": "YINING",
        "operator": "CMA",
        "wmo-id": 51431,
        "latitude": 43.95,
        "longitude": 81.3333333333,
        "elevation": "",
        "sonde": [
            "31"
        ]
    },
    {
        "name": "WU LU MU QI (51463-1)",
        "operator": "CMA",
        "wmo-id": 51463,
        "latitude": 43.7833333333,
        "longitude": 87.6166666667,
        "elevation": "",
        "sonde": [
            "31"
        ]
    },
    {
        "name": "KUQA",
        "operator": "CMA",
        "wmo-id": 51644,
        "latitude": 41.7166666667,
        "longitude": 82.95,
        "elevation": "",
        "sonde": [
            "31"
        ]
    },
    {
        "name": "KASHI",
        "operator": "CMA",
        "wmo-id": 51709,
        "latitude": 39.4833333333,
        "longitude": 75.75,
        "elevation": "",
        "sonde": [
            "32"
        ]
    },
    {
        "name": "RUOQIANG",
        "operator": "CMA",
        "wmo-id": 51777,
        "latitude": 39.0333333333,
        "longitude": 88.1666666667,
        "elevation": "",
        "sonde": [
            "32"
        ]
    },
    {
        "name": "HOTAN",
        "operator": "CMA",
        "wmo-id": 51828,
        "latitude": 37.1333333333,
        "longitude": 79.9333333333,
        "elevation": "",
        "sonde": [
            "32"
        ]
    },
    {
        "name": "MINFENG",
        "operator": "CMA",
        "wmo-id": 51839,
        "latitude": 37.0666666667,
        "longitude": 82.7166666667,
        "elevation": "1409.5",
        "sonde": [
            "32"
        ]
    },
    {
        "name": "HAMI",
        "operator": "CMA",
        "wmo-id": 52203,
        "latitude": 42.8166666667,
        "longitude": 93.5166666667,
        "elevation": "",
        "sonde": [
            "32"
        ]
    },
    {
        "name": "EJIN QI",
        "operator": "CMA",
        "wmo-id": 52267,
        "latitude": 41.95,
        "longitude": 101.0666666667,
        "elevation": "",
        "sonde": [
            "32"
        ]
    },
    {
        "name": "MAZONG SHAN",
        "operator": "CMA",
        "wmo-id": 52323,
        "latitude": 41.8,
        "longitude": 97.0333333333,
        "elevation": "",
        "sonde": [
            "32"
        ]
    },
    {
        "name": "DUNHUANG",
        "operator": "CMA",
        "wmo-id": 52418,
        "latitude": 40.15,
        "longitude": 94.6833333333,
        "elevation": "",
        "sonde": [
            "32"
        ]
    },
    {
        "name": "JIUQUAN",
        "operator": "CMA",
        "wmo-id": 52533,
        "latitude": 39.7666666667,
        "longitude": 98.4833333333,
        "elevation": "",
        "sonde": [
            "32"
        ]
    },
    {
        "name": "MINQIN",
        "operator": "CMA",
        "wmo-id": 52681,
        "latitude": 38.6333333333,
        "longitude": 103.0833333333,
        "elevation": "1367",
        "sonde": [
            "32"
        ]
    },
    {
        "name": "GOLMUD",
        "operator": "CMA",
        "wmo-id": 52818,
        "latitude": 36.4166666667,
        "longitude": 94.9,
        "elevation": "",
        "sonde": [
            "32"
        ]
    },
    {
        "name": "DOULAN",
        "operator": "CMA",
        "wmo-id": 52836,
        "latitude": 36.3,
        "longitude": 98.1,
        "elevation": "",
        "sonde": [
            "32"
        ]
    },
    {
        "name": "XINING (52866-1)",
        "operator": "CMA",
        "wmo-id": 52866,
        "latitude": 36.7166666667,
        "longitude": 101.75,
        "elevation": "",
        "sonde": [
            "32"
        ]
    },
    {
        "name": "YU ZHONG",
        "operator": "CMA",
        "wmo-id": 52983,
        "latitude": 35.8666666667,
        "longitude": 104.15,
        "elevation": "",
        "sonde": [
            "32"
        ]
    },
    {
        "name": "ERENHOT (53068-1)",
        "operator": "CMA",
        "wmo-id": 53068,
        "latitude": 43.6333333333,
        "longitude": 111.95,
        "elevation": "",
        "sonde": [
            "32"
        ]
    },
    {
        "name": "HOHHOT",
        "operator": "CMA",
        "wmo-id": 53463,
        "latitude": 40.85,
        "longitude": 111.5666666667,
        "elevation": "",
        "sonde": [
            "32"
        ]
    },
    {
        "name": "LINHE",
        "operator": "CMA",
        "wmo-id": 53513,
        "latitude": 40.7333333333,
        "longitude": 107.3666666667,
        "elevation": "1041",
        "sonde": [
            "33"
        ]
    },
    {
        "name": "YINCHUAN",
        "operator": "CMA",
        "wmo-id": 53614,
        "latitude": 38.4666666667,
        "longitude": 106.2,
        "elevation": "",
        "sonde": [
            "32"
        ]
    },
    {
        "name": "TAIYUAN (53772-1)",
        "operator": "CMA",
        "wmo-id": 53772,
        "latitude": 37.6205555556,
        "longitude": 112.5766666667,
        "elevation": "",
        "sonde": [
            "31"
        ]
    },
    {
        "name": "YAN AN (53845-1)",
        "operator": "CMA",
        "wmo-id": 53845,
        "latitude": 36.5666666667,
        "longitude": 109.45,
        "elevation": "",
        "sonde": [
            "31"
        ]
    },
    {
        "name": "PINGLIANG",
        "operator": "CMA",
        "wmo-id": 53915,
        "latitude": 35.5333333333,
        "longitude": 106.6666666667,
        "elevation": "",
        "sonde": [
            "32"
        ]
    },
    {
        "name": "XILIN HOT",
        "operator": "CMA",
        "wmo-id": 54102,
        "latitude": 43.95,
        "longitude": 116.1166666667,
        "elevation": "",
        "sonde": [
            "32"
        ]
    },
    {
        "name": "TONGLIAO",
        "operator": "CMA",
        "wmo-id": 54135,
        "latitude": 43.6,
        "longitude": 122.2666666667,
        "elevation": "",
        "sonde": [
            "32"
        ]
    },
    {
        "name": "CHANGCHUN",
        "operator": "CMA",
        "wmo-id": 54161,
        "latitude": 43.9,
        "longitude": 125.2166666667,
        "elevation": "",
        "sonde": [
            "33"
        ]
    },
    {
        "name": "CHIFENG (54218-1)",
        "operator": "CMA",
        "wmo-id": 54218,
        "latitude": 42.3,
        "longitude": 118.8333333333,
        "elevation": "",
        "sonde": [
            "32"
        ]
    },
    {
        "name": "YANJI",
        "operator": "CMA",
        "wmo-id": 54292,
        "latitude": 42.8666666667,
        "longitude": 129.5,
        "elevation": "",
        "sonde": [
            "32"
        ]
    },
    {
        "name": "LINJIANG",
        "operator": "CMA",
        "wmo-id": 54374,
        "latitude": 41.8,
        "longitude": 126.8833333333,
        "elevation": "385",
        "sonde": [
            "33"
        ]
    },
    {
        "name": "BEIJING",
        "operator": "CMA",
        "wmo-id": 54511,
        "latitude": 39.9333333333,
        "longitude": 116.2833333333,
        "elevation": "",
        "sonde": [
            "32"
        ]
    },
    {
        "name": "DALIAN",
        "operator": "CMA",
        "wmo-id": 54662,
        "latitude": 38.9,
        "longitude": 121.6333333333,
        "elevation": "",
        "sonde": [
            "32"
        ]
    },
    {
        "name": "ZHANGQIU",
        "operator": "CMA",
        "wmo-id": 54727,
        "latitude": 36.7,
        "longitude": 117.55,
        "elevation": "",
        "sonde": [
            "32"
        ]
    },
    {
        "name": "QINGDAO",
        "operator": "CMA",
        "wmo-id": 54857,
        "latitude": 36.0666666667,
        "longitude": 120.3333333333,
        "elevation": "",
        "sonde": [
            "32"
        ]
    },
    {
        "name": "NAGQU",
        "operator": "CMA",
        "wmo-id": 55299,
        "latitude": 31.4833333333,
        "longitude": 92.0666666667,
        "elevation": "",
        "sonde": [
            "32"
        ]
    },
    {
        "name": "LHASA",
        "operator": "CMA",
        "wmo-id": 55591,
        "latitude": 29.6666666667,
        "longitude": 91.1333333333,
        "elevation": "",
        "sonde": [
            "32"
        ]
    },
    {
        "name": "YUSHU (56029-1)",
        "operator": "CMA",
        "wmo-id": 56029,
        "latitude": 33.0,
        "longitude": 96.95,
        "elevation": "",
        "sonde": [
            "32"
        ]
    },
    {
        "name": "HEZUO",
        "operator": "CMA",
        "wmo-id": 56080,
        "latitude": 35.0,
        "longitude": 102.9,
        "elevation": "",
        "sonde": [
            "32"
        ]
    },
    {
        "name": "QAMDO (56137-1)",
        "operator": "CMA",
        "wmo-id": 56137,
        "latitude": 31.15,
        "longitude": 97.1666666667,
        "elevation": "",
        "sonde": [
            "31"
        ]
    },
    {
        "name": "GARZE",
        "operator": "CMA",
        "wmo-id": 56146,
        "latitude": 31.6166666667,
        "longitude": 100.0,
        "elevation": "",
        "sonde": [
            "32"
        ]
    },
    {
        "name": "WENJIANG (56187-1)",
        "operator": "CMA",
        "wmo-id": 56187,
        "latitude": 30.75,
        "longitude": 103.8666666667,
        "elevation": "",
        "sonde": [
            "32"
        ]
    },
    {
        "name": "XICHANG",
        "operator": "CMA",
        "wmo-id": 56571,
        "latitude": 27.9,
        "longitude": 102.2666666667,
        "elevation": "",
        "sonde": [
            "32"
        ]
    },
    {
        "name": "WEINING",
        "operator": "CMA",
        "wmo-id": 56691,
        "latitude": 26.8666666667,
        "longitude": 104.2833333333,
        "elevation": "",
        "sonde": [
            "32"
        ]
    },
    {
        "name": "TENGCHONG",
        "operator": "CMA",
        "wmo-id": 56739,
        "latitude": 24.9844444444,
        "longitude": 98.5055555556,
        "elevation": "",
        "sonde": [
            "32"
        ]
    },
    {
        "name": "KUNMING",
        "operator": "CMA",
        "wmo-id": 56778,
        "latitude": 25.0166666667,
        "longitude": 102.6833333333,
        "elevation": "",
        "sonde": [
            "32"
        ]
    },
    {
        "name": "SIMAO",
        "operator": "CMA",
        "wmo-id": 56964,
        "latitude": 22.7666666667,
        "longitude": 100.9833333333,
        "elevation": "",
        "sonde": [
            "33"
        ]
    },
    {
        "name": "MENGZI",
        "operator": "CMA",
        "wmo-id": 56985,
        "latitude": 23.4444444444,
        "longitude": 103.3277777778,
        "elevation": "",
        "sonde": [
            "33"
        ]
    },
    {
        "name": "ZHENGZHOU",
        "operator": "CMA",
        "wmo-id": 57083,
        "latitude": 34.7166666667,
        "longitude": 113.65,
        "elevation": "",
        "sonde": [
            "32"
        ]
    },
    {
        "name": "HANZHONG",
        "operator": "CMA",
        "wmo-id": 57127,
        "latitude": 33.0666666667,
        "longitude": 107.0333333333,
        "elevation": "",
        "sonde": [
            "32"
        ]
    },
    {
        "name": "JINGHE (57131-0)",
        "operator": "CMA",
        "wmo-id": 57131,
        "latitude": 34.4333333333,
        "longitude": 108.9666666667,
        "elevation": "",
        "sonde": [
            "32"
        ]
    },
    {
        "name": "NANYANG",
        "operator": "CMA",
        "wmo-id": 57178,
        "latitude": 33.1,
        "longitude": 112.4833333333,
        "elevation": "",
        "sonde": [
            "32"
        ]
    },
    {
        "name": "ENSHI",
        "operator": "CMA",
        "wmo-id": 57447,
        "latitude": 30.2833333333,
        "longitude": 109.4666666667,
        "elevation": "",
        "sonde": [
            "32"
        ]
    },
    {
        "name": "YICHANG",
        "operator": "CMA",
        "wmo-id": 57461,
        "latitude": 30.7333333333,
        "longitude": 111.3666666667,
        "elevation": "",
        "sonde": [
            "32"
        ]
    },
    {
        "name": "WUHAN",
        "operator": "CMA",
        "wmo-id": 57494,
        "latitude": 30.6,
        "longitude": 114.05,
        "elevation": "24",
        "sonde": [
            "33"
        ]
    },
    {
        "name": "CHONGQING (57516-1)",
        "operator": "CMA",
        "wmo-id": 57516,
        "latitude": 29.6,
        "longitude": 106.4,
        "elevation": "",
        "sonde": [
            "32"
        ]
    },
    {
        "name": "CHENZHOU",
        "operator": "CMA",
        "wmo-id": 57687,
        "latitude": 25.7352777778,
        "longitude": 112.9738888889,
        "elevation": "",
        "sonde": [
            "32"
        ]
    },
    {
        "name": "HUAIHUA",
        "operator": "CMA",
        "wmo-id": 57749,
        "latitude": 27.5666666667,
        "longitude": 110.0,
        "elevation": "257.8",
        "sonde": [
            "32"
        ]
    },
    {
        "name": "GUIYANG (57816-1)",
        "operator": "CMA",
        "wmo-id": 57816,
        "latitude": 26.4833333333,
        "longitude": 106.65,
        "elevation": "",
        "sonde": [
            "32"
        ]
    },
    {
        "name": "GUILIN",
        "operator": "CMA",
        "wmo-id": 57957,
        "latitude": 25.3333333333,
        "longitude": 110.3,
        "elevation": "",
        "sonde": [
            "32"
        ]
    },
    {
        "name": "CHENZHOU",
        "operator": "CMA",
        "wmo-id": 57972,
        "latitude": 25.7352777778,
        "longitude": 112.9738888889,
        "elevation": "",
        "sonde": [
            "32"
        ]
    },
    {
        "name": "GANZHOU (57993-1)",
        "operator": "CMA",
        "wmo-id": 57993,
        "latitude": 25.8666666667,
        "longitude": 115.0,
        "elevation": "",
        "sonde": [
            "33"
        ]
    },
    {
        "name": "XUZHOU",
        "operator": "CMA",
        "wmo-id": 58027,
        "latitude": 34.2833333333,
        "longitude": 117.15,
        "elevation": "",
        "sonde": [
            "32"
        ]
    },
    {
        "name": "SHEYANG",
        "operator": "CMA",
        "wmo-id": 58150,
        "latitude": 33.75,
        "longitude": 120.3,
        "elevation": "",
        "sonde": [
            "32"
        ]
    },
    {
        "name": "FUYANG",
        "operator": "CMA",
        "wmo-id": 58203,
        "latitude": 32.8666666667,
        "longitude": 115.7333333333,
        "elevation": "",
        "sonde": [
            "32"
        ]
    },
    {
        "name": "NANJING",
        "operator": "CMA",
        "wmo-id": 58238,
        "latitude": 31.9333333333,
        "longitude": 118.9,
        "elevation": "32",
        "sonde": [
            "32"
        ]
    },
    {
        "name": "SHANGHAI (BAOSHAN)",
        "operator": "CMA",
        "wmo-id": 58362,
        "latitude": 31.4166666667,
        "longitude": 121.45,
        "elevation": "",
        "sonde": [
            "32"
        ]
    },
    {
        "name": "ANQING",
        "operator": "CMA",
        "wmo-id": 58424,
        "latitude": 30.6166666667,
        "longitude": 116.9666666667,
        "elevation": "",
        "sonde": [
            "32"
        ]
    },
    {
        "name": "HANGZHOU",
        "operator": "CMA",
        "wmo-id": 58457,
        "latitude": 30.2333333333,
        "longitude": 120.1666666667,
        "elevation": "",
        "sonde": [
            "32"
        ]
    },